footpath_id,address,clue_sa,asset_type,deltaz,distance,grade1in,mcc_id,mccid_int,rlmax,rlmin,segside,statusid,streetid,street_group,start_lat,start_lon,end_lat,end_lon
30094,,Carlton,Road Footway,3.27,76.19,23.3,1384421.0,0.0,39.71,36.44,,0.0,0.0,30094.0,-37.80086200385431,144.9718282206439,-37.800792192946346,144.97119075061659
19772,Park Drive between Bayles Street and Gatehouse Street,Parkville,Road Footway,0.98,44.87,45.8,1388003.0,22364.0,37.49,36.51,East,2.0,956.0,19772.0,-37.793519407283966,144.95660893261075,-37.793179586760935,144.95695061867966
21228,Royal Parade between Morrah Street and Story Street,Parkville,Road Footway,2.0,103.84,51.9,1388654.0,22608.0,37.31,35.31,West,1.0,1041.0,21891.0,-37.79694994687182,144.9576575695402,-37.79591144193032,144.95767686156935
21665,MacKenzie Street between Victoria Street and Russell Street,"Melbourne, CBD",Road Footway,0.38,25.38,66.8,1386639.0,21609.0,33.7,33.32,,2.0,858.0,22309.0,-37.80782602086549,144.96599930789048,-37.80766225190766,144.96663532195993
26337,Leicester Place from Leicester Street,Carlton,Road Footway,0.0,0.0,0.0,1384666.0,20872.0,29.35,29.35,,3.0,785.0,26682.0,-37.8025792402914,144.9613489867906,-37.802517320238316,144.9607774703487
23884,Flemington Road between Blackwood Street and Wreckyn Street,North Melbourne,Road Footway,1.28,87.78,68.6,1388193.0,21123.0,27.18,25.9,South Servic,1.0,632.0,25306.0,-37.799942053711256,144.95491444795354,-37.80057138330649,144.95574943045375
21958,,North Melbourne,Road Footway,1.81,104.52,57.7,1385423.0,0.0,26.33,24.52,,0.0,0.0,21958.0,-37.80528697929935,144.95794662427724,-37.804384579350256,144.95754049844197
28150,Carlton Street between Nicholson Street and Canning Street,Carlton,Road Footway,1.78,142.03,79.8,1388941.0,20683.0,35.68,33.9,South,2.0,486.0,30384.0,-37.8011090220332,144.9724751229921,-37.801267263634884,144.97414453519673
23921,,Carlton,Road Footway,4.98,156.95,31.5,1388975.0,0.0,28.7,23.72,,0.0,0.0,26021.0,-37.806533343401725,144.96308598204132,-37.80592668131211,144.96319315402192
28672,Leicester Street between Pelham Street and Grattan Street,Carlton,Road Footway,5.42,198.92,36.7,1384688.0,20460.0,36.53,31.11,East,2.0,786.0,29337.0,-37.80205167777364,144.96079496236686,-37.80025338413545,144.9611776300159
30486,,Carlton,Road Footway,1.03,50.79,49.3,1384363.0,0.0,43.94,42.91,,0.0,0.0,30721.0,-37.799484399242026,144.96815750366673,-37.79942656923981,144.96761141857505
26014,Swanston Street between Queensberry Street and Lincoln Square South,Carlton,Road Footway,3.23,121.28,37.5,1389891.0,20484.0,33.54,30.31,East,2.0,1114.0,28926.0,-37.80445555631268,144.96341657448528,-37.803373404043114,144.96364424365547
21001,,"Melbourne, CBD",Road Footway,1.2,33.16,27.6,1467347.0,0.0,34.33,33.13,,0.0,0.0,22599.0,-37.80751209484972,144.96548507669868,-37.807051482812746,144.96527267341344
26679,Leicester Street between Queensberry Street and Pelham Street,Carlton,Road Footway,2.59,56.14,21.7,1389926.0,20458.0,30.5,27.91,West,2.0,786.0,27738.0,-37.802812035771375,144.96038210448611,-37.802252231971565,144.960478981263
24631,Earl Street between Lygon Street and Cardigan Street,Carlton,Road Footway,0.81,25.13,31.0,1388987.0,20740.0,32.32,31.51,,3.0,592.0,25341.0,-37.80593599738136,144.96470116838506,-37.805983872468936,144.96522884040536
25644,Berkeley Street between Pelham Street and Grattan Street,Carlton,Road Footway,1.4,135.38,96.7,1389902.0,20474.0,34.28,32.88,East,2.0,441.0,26329.0,-37.801805488767954,144.95856662220862,-37.80056157255988,144.95881931875118
15424,,"Melbourne, CBD",Road Footway,3.97,76.38,19.2,1387450.0,0.0,20.98,17.01,,0.0,0.0,17989.0,-37.81086194774585,144.95899841272566,-37.81061376922367,144.95985234427087
19495,Elizabeth Street between Franklin Street and Therry Street,"Melbourne, CBD",Road Footway,1.55,94.83,61.2,1385805.0,21631.0,18.52,16.97,East,2.0,599.0,21651.0,-37.80716812082877,144.96003264517427,-37.8080001894576,144.96047377955455
28145,,Carlton,Road Footway,7.81,205.39,26.3,1388940.0,0.0,41.91,34.1,,0.0,0.0,30384.0,-37.80316103152191,144.9738276891201,-37.80223878461886,144.97398216659573
20888,,Parkville,Road Footway,2.79,111.56,40.0,1388637.0,0.0,30.11,27.32,,0.0,0.0,21589.0,-37.796664026891314,144.95527180786868,-37.796512277625745,144.95397628969926
23618,,"Melbourne, CBD",Road Footway,0.85,19.66,23.1,1466405.0,0.0,29.15,28.3,,0.0,0.0,24325.0,-37.80782772147303,144.9693771057486,-37.807769638588994,144.96891356123038
23306,Albert Street between Spring Street and Nicholson Street,East Melbourne,Road Footway,1.37,30.06,21.9,1389559.0,20886.0,35.73,34.36,,2.0,375.0,27822.0,-37.80944478278659,144.97234059210967,-37.80934682654878,144.97278014476856
28382,,Carlton,Road Footway,1.6,44.82,28.0,1466276.0,0.0,33.72,32.12,,0.0,0.0,30370.0,-37.80193252637801,144.95973003532438,-37.801514965817965,144.96015846381928
18986,Royal Parade between Bayles Street and Degraves Street,Parkville,Road Footway,0.41,39.15,95.5,1388105.0,22605.0,40.7,40.29,West,1.0,1041.0,20139.0,-37.79379308719925,144.9580462342454,-37.794402250997244,144.9578599349023
30258,Canning Street between Elgin Street and Palmerston Street,Carlton,Road Footway,0.57,59.02,103.5,1389867.0,20583.0,28.3,27.73,East,2.0,479.0,30894.0,-37.797619378843905,144.97304211166244,-37.79672009094553,144.9732355857
25627,,Parkville,Road Footway,3.02,80.37,26.6,1390587.0,0.0,37.52,34.5,,0.0,0.0,28902.0,-37.80026958014204,144.96382703179947,-37.80014622233455,144.9626985527327
29875,Lygon Lane between Grattan Lane and Faraday Lane,Carlton,Road Footway,1.4,114.15,81.5,1388971.0,20762.0,44.5,43.1,,3.0,771.0,29876.0,-37.799015397837906,144.96674165906575,-37.800297466911246,144.96651563790988
22582,Bouverie Street between Victoria Street and Queensberry Street,Carlton,Road Footway,4.37,203.69,46.6,1384550.0,20462.0,23.69,19.32,West,2.0,456.0,24942.0,-37.80633245886131,144.96126492168597,-37.80452933680323,144.96162581231096
30401,Barkly Street between Nicholson Street and Canning Street,Carlton,Road Footway,3.24,135.68,41.9,1384409.0,20596.0,30.9,27.66,South,2.0,415.0,30533.0,-37.799134724478115,144.9730903771549,-37.79846633898744,144.97434494308987
24965,Cardigan Street between Victoria Street and Queensberry Street,Carlton,Road Footway,3.0,100.46,33.5,1384527.0,20504.0,34.12,31.12,West,2.0,483.0,27037.0,-37.80485946335804,144.96463313460688,-37.805830091535455,144.96437023665752
30978,,Carlton,Road Footway,0.76,42.19,55.5,1384361.0,0.0,42.05,41.29,,0.0,0.0,30978.0,-37.79976923361354,144.96902535101304,-37.79984233310882,144.96966334621519
28947,,Carlton,Road Footway,1.02,64.57,63.3,1384459.0,0.0,42.32,41.3,,0.0,0.0,29566.0,-37.80286590120712,144.96824726492974,-37.802246230234935,144.96835304068603
24883,Keppel Street between Cardigan Street and Swanston Street,Carlton,Road Footway,0.76,105.64,139.0,1389849.0,20502.0,48.03,47.27,West,2.0,755.0,25607.0,-37.79466905402768,144.9654701747713,-37.79553536604941,144.96615793930926
30509,Little Barkly Street between Faraday Street and Rathdowne Street,Carlton,Road Footway,3.21,64.31,20.0,1389887.0,20675.0,37.89,34.68,,3.0,807.0,30633.0,-37.799854271047366,144.9708066966371,-37.79929759576394,144.97180502914213
29393,Nicholson Street between Faraday Street and Barkly Street,Carlton,Road Footway,2.03,125.2,61.7,1384224.0,21364.0,29.1,27.07,,1.0,931.0,30650.0,-37.79931650061232,144.9744711124489,-37.798272059787024,144.9746895398605
25035,Albert Street between Nicholson Street and Gisborne Street,East Melbourne,Road Footway,0.81,27.65,34.1,1384795.0,20889.0,38.93,38.12,North,2.0,375.0,25732.0,-37.809160718713045,144.9731603062827,-37.80920596594249,144.9738135502896
30101,,Carlton,Road Footway,0.19,36.07,189.8,1466009.0,0.0,32.88,32.69,,0.0,0.0,30392.0,-37.80019972712711,144.9730750880899,-37.79994560182811,144.9726811212243
26674,,Carlton,Road Footway,6.6,173.09,26.2,1384682.0,0.0,31.14,24.54,,0.0,0.0,27738.0,-37.80216154994582,144.95968651140984,-37.80364866488125,144.96023382445293
18730,A'Beckett Street between Elizabeth Street and Queen Street,"Melbourne, CBD",Road Footway,2.21,76.02,34.4,1389290.0,21649.0,18.15,15.94,North,2.0,368.0,19108.0,-37.80960290172814,144.9593083274548,-37.80931316385181,144.96038220820998
30388,Canning Street between Owen Street and Murchison Street,Carlton,Road Footway,0.84,37.19,44.3,1384474.0,20579.0,33.72,32.88,East,2.0,479.0,30392.0,-37.80038412415684,144.97256629454427,-37.79994559866425,144.97268109267767
24708,Albert Street between Lansdowne Street and Eades Street,East Melbourne,Road Footway,2.78,51.3,18.5,1384778.0,20893.0,37.09,34.31,North,2.0,375.0,25076.0,-37.80974772413256,144.97851250903028,-37.80979098299916,144.97915763901173
30504,Carlow Place between Rathdowne Street and Faraday Street,Carlton,Road Footway,0.81,39.28,48.5,1384252.0,20674.0,37.09,36.28,,3.0,485.0,30505.0,-37.799334876033065,144.97060280369962,-37.79940567108292,144.97125770723918
14562,A'Beckett Street between Wills Street and Queen Street,"Melbourne, CBD",Road Footway,1.84,57.04,31.0,1387659.0,21524.0,25.54,23.7,South,2.0,368.0,32346.0,-37.81038747985833,144.9571989571063,-37.810232787959755,144.957816979846
24566,Cardigan Street between Faraday Street and Elgin Street,Carlton,Road Footway,1.63,133.37,81.8,1384184.0,20516.0,44.52,42.89,West,2.0,483.0,24897.0,-37.79712120669939,144.96591531613697,-37.79836230249462,144.96566268925795
28692,Argyle Place South between Lygon Street and Cardigan Street,Carlton,Road Footway,0.57,24.12,42.3,1388999.0,20751.0,37.88,37.31,South,2.0,398.0,28932.0,-37.80357125134154,144.96544171564634,-37.80360145253105,144.96592779868072
27772,,Carlton,Road Footway,1.02,76.57,75.1,1384541.0,0.0,38.31,37.29,,0.0,0.0,28693.0,-37.80434668947557,144.9661340957539,-37.803741176515054,144.96623810731074
28903,,Carlton,Road Footway,5.42,198.92,36.7,1384688.0,0.0,36.53,31.11,,0.0,0.0,29337.0,-37.8009588682691,144.9610527706299,-37.801735807743675,144.9609152564131
28673,Pelham Street between Bouverie Street and Leicester Street,Carlton,Road Footway,2.05,73.76,36.0,1384689.0,20873.0,31.33,29.28,North,2.0,975.0,29337.0,-37.802103673758566,144.960850283488,-37.802181839543046,144.96199725510743
15122,Intersection of Queen Street and Franklin Street,"Melbourne, CBD",Road Footway,4.82,192.77,40.0,1388278.0,20922.0,28.56,23.74,,2.0,1010.0,15419.0,-37.80959331152679,144.95795423890067,-37.80956890437317,144.95743782492625
25348,Queensberry Street between Lygon Street and Cardigan Street,Carlton,Road Footway,1.62,64.54,39.8,1384569.0,22499.0,36.54,34.92,South,2.0,1008.0,25348.0,-37.80492447851788,144.96520321427738,-37.80498172148461,144.96602951107937
16463,Royal Parade between Gatehouse Street and MacArthur Road,Parkville,Road Footway,1.21,185.27,153.1,1389659.0,22438.0,42.48,41.27,West,1.0,1041.0,16777.0,-37.78998767795376,144.95840416827474,-37.79185443081883,144.958173757636
26311,,Parkville,Road Footway,1.84,82.35,44.8,1388191.0,0.0,36.35,34.51,,0.0,0.0,28902.0,-37.80003741770997,144.96170358115808,-37.79998499715147,144.96122424616482
21909,Story Street between Benjamin Street and Fitzgibbon Street,Parkville,Road Footway,1.38,82.07,59.5,1388759.0,22322.0,32.29,30.91,South,2.0,1101.0,23205.0,-37.79706647174864,144.95648899474284,-37.79696558289818,144.95544513720552
23580,Peel Street between Queensberry Street and Elizabeth Street,North Melbourne,Road Footway,0.78,40.24,51.6,1385073.0,21117.0,33.73,32.95,East,1.0,973.0,23580.0,-37.80238859948211,144.95682556906098,-37.80186929187676,144.95690957517328
28364,Grattan Street between Swanston Street and Bouverie Street,Carlton,Road Footway,1.63,42.38,26.0,1384658.0,20847.0,36.32,34.69,South,2.0,674.0,29134.0,-37.800446817308156,144.96293735151218,-37.80047206201681,144.9634743073024
29947,,Carlton,Road Footway,0.79,24.26,30.7,1384205.0,0.0,33.91,33.12,,0.0,0.0,30021.0,-37.79666724280753,144.97020221408374,-37.79660160042066,144.96958802952602
29582,,Carlton,Road Footway,5.65,172.25,30.5,1466092.0,0.0,41.33,35.68,,0.0,0.0,30384.0,-37.801563360075264,144.9737909624132,-37.802298537987056,144.97200934203673
27060,Rathdowne Street between Queensberry Street and Pelham Street,Carlton,Road Footway,3.2,155.98,48.7,1388963.0,20556.0,42.71,39.51,East,2.0,1024.0,29578.0,-37.80498721757998,144.9693545969705,-37.80338784399458,144.96966861651092
29961,Elgin Street between Nicholson Street and Canning Street,Carlton,Road Footway,1.63,128.57,78.9,1384329.0,20597.0,28.11,26.48,North,2.0,598.0,30894.0,-37.79780075977929,144.97473568779756,-37.79765419926398,144.9730803691654
29136,Bouverie Street between Lincoln Square North and Grattan Street,Carlton,Road Footway,1.02,45.7,44.8,1384667.0,20468.0,33.33,32.31,West,2.0,456.0,29328.0,-37.80038261114702,144.96235033148199,-37.80087734432081,144.96222519586627
27063,,Carlton,Road Footway,3.32,138.57,41.7,1466019.0,0.0,40.47,37.15,,0.0,0.0,29578.0,-37.80698451009169,144.9710252879633,-37.80567140386878,144.97119806319358
30204,,Carlton,Road Footway,0.78,46.09,59.1,1384425.0,0.0,43.71,42.93,,0.0,0.0,30204.0,-37.79937246051242,144.9676241581992,-37.799437689947354,144.96824002180537
21986,Exhibition Street between La Trobe Street and Victoria Street,"Melbourne, CBD",Road Footway,2.18,40.95,18.8,1389335.0,21600.0,28.71,26.53,West,2.0,615.0,22319.0,-37.80763951505068,144.96835165712474,-37.808048814639065,144.9686212756218
26597,,Carlton,Road Footway,0.19,40.55,213.3,1384211.0,0.0,34.06,33.87,,0.0,0.0,28018.0,-37.79257007846067,144.97001217301388,-37.793209700567324,144.96990429437574
20514,Park Drive between Morrah Street and Bayles Street,Parkville,Road Footway,1.58,52.06,32.9,1389628.0,22346.0,34.47,32.89,East,2.0,956.0,21582.0,-37.794560527116296,144.95572267949362,-37.79501796212718,144.95526408873022
13516,Wills Street between La Trobe Street and A'Beckett Street,"Melbourne, CBD",Road Footway,0.67,23.37,34.9,1386648.0,21521.0,26.62,25.95,,2.0,1180.0,13518.0,-37.81047272793929,144.95699369272378,-37.81092450754816,144.95727099003216
12975,,"West Melbourne, Residential",Road Footway,0.6,23.69,39.5,1467869.0,0.0,29.17,28.57,,0.0,0.0,15114.0,-37.81027822591647,144.95506376570395,-37.80995028110224,144.9554000551779
29960,,Carlton,Road Footway,1.63,128.57,78.9,1384329.0,0.0,28.11,26.48,,0.0,0.0,30894.0,-37.79762383094285,144.97308587122802,-37.79779994113413,144.97473582667382
19132,Swanston Street between Little Lonsdale Street and La Trobe Street,"Melbourne, CBD",Road Footway,2.37,92.09,38.9,1517465.0,20161.0,23.33,20.96,East,2.0,1114.0,24992.0,-37.80968235097791,144.96404411141867,-37.810487542826095,144.96441634407077
22001,Lonsdale Street between Spring Street and Exhibition Street,"Melbourne, CBD",Road Footway,10.37,192.82,18.6,1387891.0,20001.0,33.71,23.34,South,2.0,803.0,27824.0,-37.81016495383164,144.96987199060982,-37.809568297113024,144.97203492463422
20995,Little Lonsdale Street between Exhibition Street and Russell Street,"Melbourne, CBD",Road Footway,0.17,24.72,145.3,1388265.0,20036.0,23.09,22.92,South,3.0,825.0,21369.0,-37.80921890703875,144.9690706316831,-37.80938131875463,144.9684540595361
24398,Cathedral Place between Lansdowne Street and Gisborne Street,East Melbourne,Road Footway,4.2,187.58,44.7,1384845.0,21851.0,38.53,34.33,North,2.0,494.0,25746.0,-37.8106167151842,144.97575703419324,-37.81085401343329,144.97798156967232
28926,Ievers Terrace from Cardigan Street,Carlton,Road Footway,0.22,21.12,95.9,1384672.0,20804.0,36.89,36.67,,3.0,734.0,28926.0,-37.80343511859714,144.9642065864931,-37.80349086964848,144.96477354076222
24959,,Carlton,Road Footway,4.98,156.95,31.5,1388975.0,0.0,28.7,23.72,,0.0,0.0,26021.0,-37.80518305006973,144.96332461562574,-37.805874445828266,144.96320347648893
14287,William Street between A'Beckett Street and Franklin Street,"Melbourne, CBD",Road Footway,0.59,54.67,92.6,1389334.0,21529.0,28.54,27.95,East,2.0,1179.0,15419.0,-37.80969941608953,144.95561289048356,-37.81028211787429,144.95591804654515
24928,Oxford Street between Blackwood Street and Wreckyn Street,North Melbourne,Road Footway,0.42,13.21,31.4,1386662.0,21127.0,26.93,26.51,,3.0,951.0,25649.0,-37.801126273962105,144.95504993485594,-37.8008352729524,144.954674558711
25736,,East Melbourne,Road Footway,1.42,92.53,65.2,1384757.0,0.0,43.94,42.52,,0.0,0.0,26080.0,-37.80938094629458,144.9754476467704,-37.80848412055471,144.97559365819026
22896,Peel Street between Queensberry Street and Elizabeth Street,North Melbourne,Road Footway,0.79,40.59,51.4,1385682.0,21117.0,33.33,32.54,West,1.0,973.0,23893.0,-37.80355166390285,144.95619988623346,-37.80305139654518,144.95628602659144
17600,,North Melbourne,Road Footway,1.84,61.3,33.3,1387499.0,0.0,27.94,26.1,,0.0,0.0,18715.0,-37.80577204720613,144.95623352450428,-37.805860402480754,144.95702126071208
26283,Palmerston Street between Drummond Street and Lygon Street,Carlton,Road Footway,5.41,84.25,15.6,1384403.0,20685.0,43.09,37.68,North,2.0,955.0,28606.0,-37.795996391892274,144.9690778223276,-37.795908422116206,144.96793764683096
30352,Drummond Street between Faraday Street and Elgin Street,Carlton,Road Footway,2.18,82.62,37.9,1384188.0,20550.0,38.67,36.49,West,2.0,583.0,30352.0,-37.797631984680294,144.9688335375982,-37.79846904558401,144.96864843156519
30310,Canning Street between Kay Street and Neill Street,Carlton,Road Footway,0.83,125.56,151.3,1384400.0,20589.0,26.86,26.03,East,2.0,479.0,30448.0,-37.79355706489555,144.97377679181463,-37.79472112080997,144.9735415572689
28942,Drummond Street between Queensberry Street and Pelham Street,Carlton,Road Footway,0.4,69.06,172.6,1388923.0,20544.0,40.71,40.31,West,2.0,583.0,29356.0,-37.803100188928745,144.9679241218026,-37.80381081813436,144.96774072182026
20218,,North Melbourne,Road Footway,1.63,64.81,39.8,1385034.0,0.0,35.76,34.13,,0.0,0.0,20575.0,-37.803824406029065,144.95534472499006,-37.80372857037686,144.95448802279518
22916,Bouverie Street between Victoria Street and Queensberry Street,Carlton,Road Footway,3.61,154.56,42.8,1389003.0,20462.0,23.14,19.53,East,2.0,456.0,24289.0,-37.806371332692756,144.96156982515743,-37.80488602943287,144.96187543360162
22197,Swanston Street between Elgin Street and College Crescent,Carlton,Road Footway,0.98,66.42,67.8,1384169.0,20494.0,44.85,43.87,East,2.0,1114.0,23188.0,-37.79671619089615,144.96471558029094,-37.7961032083208,144.96489589596268
22258,Capel Street between Courtney Street and Bedford Street,North Melbourne,Road Footway,0.83,39.08,47.1,1385083.0,21118.0,34.35,33.52,West,2.0,482.0,23893.0,-37.80259033604426,144.9556958676376,-37.803105165368855,144.95560158831103
24027,Cathedral Place between Lansdowne Street and Gisborne Street,East Melbourne,Road Footway,3.81,156.08,41.0,1384903.0,21851.0,37.33,33.52,South,2.0,494.0,24396.0,-37.81109260942385,144.97793646450015,-37.8109210942349,144.9761174086785
23934,Victoria Street between Rathdowne Street and Drummond Street,Carlton,Road Footway,0.83,46.91,56.5,1385812.0,21601.0,32.74,31.91,North,1.0,1152.0,24990.0,-37.80701950353322,144.96753706136263,-37.80707501456956,144.96805657354003
27653,Rathdowne Street between Neill Street and Princes Street,Carlton,Road Footway,0.58,21.48,37.0,1384266.0,20639.0,30.66,30.08,West,2.0,1024.0,28018.0,-37.793357863624784,144.97104401513198,-37.79269967040646,144.97119554927104
21637,,Carlton,Road Footway,3.21,105.25,32.8,1384665.0,0.0,24.53,21.32,,0.0,0.0,22277.0,-37.80536455552157,144.95992994201384,-37.80428110480074,144.95943022922364
29274,,Carlton,Road Footway,2.81,175.4,62.4,1384194.0,0.0,30.48,27.67,,0.0,0.0,30172.0,-37.794451667125934,144.97173816606218,-37.794797471786545,144.971142982926
28876,Grattan Street between Lygon Street and Cardigan Street,Carlton,Road Footway,1.0,36.48,36.5,1384648.0,20757.0,42.7,41.7,North,2.0,674.0,29698.0,-37.800568983015935,144.96625167993696,-37.800587466252345,144.96677795692403
21967,,Carlton,Road Footway,0.6,89.33,148.9,1387496.0,0.0,19.93,19.33,,0.0,0.0,24942.0,-37.80620701186697,144.96012761360132,-37.80633245886131,144.96126492168597
16791,,Parkville,Road Footway,0.59,61.15,103.6,1465599.0,0.0,39.5,38.91,,0.0,0.0,16793.0,-37.792225280407976,144.9574198390491,-37.79151347645984,144.9568474520867
29327,Church Street between Bouverie Street and Leicester Street,Carlton,Road Footway,1.61,43.53,27.0,1384669.0,20846.0,33.73,32.12,,3.0,512.0,29328.0,-37.80087356753185,144.9622258219911,-37.800815999931594,144.96165827091204
26717,,Carlton,Road Footway,0.84,80.54,95.9,1466056.0,0.0,36.73,35.89,,0.0,0.0,29578.0,-37.80627638420937,144.97029147280784,-37.806968184358155,144.97094584347
22269,Queensberry Street between Elizabeth Street and O'Connell Street,North Melbourne,Road Footway,0.83,39.59,47.7,1385074.0,20923.0,27.36,26.53,North,2.0,1008.0,23580.0,-37.803793543410244,144.95750851396303,-37.80388458522898,144.95803229254645
24028,Lansdowne Street between Cathedral Place and Albert Street,East Melbourne,Road Footway,3.8,101.46,26.7,1389961.0,21850.0,38.12,34.32,West,1.0,778.0,25746.0,-37.81085401343329,144.97798156967232,-37.80995833096251,144.97816505586252
19863,Peel Street between Princess Street and Queensberry Street,North Melbourne,Road Footway,1.22,53.03,43.5,1385080.0,20938.0,29.59,28.37,East,1.0,973.0,19863.0,-37.804866913493136,144.95634969900775,-37.80415651045776,144.95652497981467
15438,Elizabeth Street between Little Lonsdale Street and La Trobe Street,"Melbourne, CBD",Road Footway,1.16,86.89,74.9,1387533.0,20169.0,13.7,12.54,East,2.0,599.0,18001.0,-37.81041579241814,144.9615192639931,-37.811210795171135,144.96194707516105
23204,Royal Parade between Grattan Street and Story Street,Parkville,Road Footway,2.61,104.67,40.1,1388301.0,22514.0,34.32,31.71,West,1.0,1041.0,23205.0,-37.799433910643614,144.9573254733297,-37.79826496628704,144.95749591248526
23862,Cardigan Street between Elgin Street and Keppel Street,Carlton,Road Footway,1.0,40.69,40.7,1384338.0,20518.0,44.09,43.09,West,2.0,483.0,24564.0,-37.796848532858846,144.96592439656706,-37.796328078261475,144.96604760771612
26688,,Carlton,Road Footway,2.82,44.92,15.9,1389906.0,0.0,30.31,27.49,,0.0,0.0,28681.0,-37.803270535753335,144.96270826542457,-37.80321016824646,144.96216098379014
30309,,Carlton,Road Footway,0.83,125.56,151.3,1384400.0,0.0,26.86,26.03,,0.0,0.0,30448.0,-37.79355704510756,144.97377683682726,-37.794717315179035,144.97357526228973
29164,,Carlton,Road Footway,1.74,76.71,44.1,1384624.0,0.0,38.32,36.58,,0.0,0.0,30722.0,-37.80326585986713,144.9651654073039,-37.80338890170696,144.96630300582643
20599,Franklin Street between Swanston Street and Elizabeth Street,"Melbourne, CBD",Road Footway,2.62,52.6,20.1,1386326.0,21633.0,20.74,18.12,South,2.0,644.0,21652.0,-37.80764753721608,144.96273834695685,-37.8077916120165,144.96212789718658
30079,Carlton Street between Canning Street and Rathdowne Street,Carlton,Road Footway,3.27,76.19,23.3,1384421.0,20682.0,39.71,36.44,North,2.0,486.0,30094.0,-37.80081075985168,144.97118847427816,-37.80089890755658,144.97216503717752
19135,,"Melbourne, CBD",Road Footway,2.37,92.09,38.9,1517465.0,0.0,23.33,20.96,,0.0,0.0,24992.0,-37.80968235097791,144.96404411141867,-37.81037890392808,144.96478799844922
16477,,Parkville,Road Footway,1.81,91.82,50.7,1465759.0,0.0,39.88,38.07,,0.0,0.0,16793.0,-37.79152243382834,144.9567146118265,-37.792561321078956,144.95685716556326
30334,Palmerston Street between Canning Street and Rathdowne Street,Carlton,Road Footway,1.02,51.16,50.1,1384323.0,20780.0,30.88,29.86,South,2.0,955.0,30600.0,-37.79651334204804,144.9713295771762,-37.79655403770716,144.97196877420123
26953,,Carlton,Road Footway,0.38,14.41,37.9,1384310.0,0.0,49.06,48.68,,0.0,0.0,26959.0,-37.7952627290491,144.9670858764737,-37.79520515766236,144.96655810792706
28120,Argyle Place East from Lygon Street,Carlton,Road Footway,0.17,1.04,6.1,1389857.0,20727.0,39.52,39.35,,3.0,396.0,28700.0,-37.80359949401613,144.96718943634824,-37.803542075340665,144.96662304076213
29895,,Carlton,Road Footway,0.43,39.26,91.3,1466307.0,0.0,38.14,37.71,,0.0,0.0,30370.0,-37.80030304068767,144.95996610941756,-37.800368989350844,144.96085547565696
22538,Story Street between Benjamin Street and Fitzgibbon Street,Parkville,Road Footway,1.18,82.8,70.2,1388170.0,22322.0,31.69,30.51,North,2.0,1101.0,23203.0,-37.796820018669656,144.9565353019701,-37.796715364433524,144.95549215930203
28039,,Carlton,Road Footway,0.81,64.96,80.2,1384396.0,0.0,44.1,43.29,,0.0,0.0,28620.0,-37.79842619975008,144.96627029504702,-37.79852210860889,144.96713389726315
28130,Rathdowne Street between Pelham Street and Grattan Street,Carlton,Road Footway,1.43,185.09,129.4,1384353.0,20558.0,44.94,43.51,East,2.0,1024.0,30384.0,-37.80302227593904,144.96968936783588,-37.80122478967563,144.97003740936427
15130,La Trobe Street between Elizabeth Street and Queen Street,"Melbourne, CBD",Road Footway,3.97,76.38,19.2,1387450.0,20024.0,20.98,17.01,North,2.0,780.0,17989.0,-37.81086197144886,144.9589984236869,-37.8106449769834,144.95986659826738
30155,Station Street between Kay Street and Princes Street,Carlton,Road Footway,0.27,58.04,214.9,1384173.0,20877.0,25.7,25.43,West,2.0,1092.0,30584.0,-37.79325743076906,144.97461495451313,-37.79417654155337,144.9744240778135
25678,,Carlton,Road Footway,1.2,50.9,42.4,1384572.0,0.0,33.92,32.72,,0.0,0.0,26022.0,-37.80489310015215,144.96488354751762,-37.805401843485434,144.96479099981983
23892,Peel Street between Queensberry Street and Elizabeth Street,North Melbourne,Road Footway,0.81,68.77,84.9,1390216.0,21117.0,34.13,33.32,West,1.0,973.0,24250.0,-37.80205335602783,144.9564264789047,-37.80301920140384,144.9562507117215
22525,Royal Parade between Grattan Street and Story Street,Parkville,Road Footway,4.36,229.28,52.6,1388156.0,22514.0,35.51,31.15,West,1.0,1041.0,23205.0,-37.79955818136582,144.95733764318422,-37.79721039302361,144.95751433913878
27341,Swanston Street between Lincoln Square North and Grattan Street,Carlton,Road Footway,0.96,52.15,54.3,1384585.0,20488.0,37.65,36.69,West,2.0,1114.0,28060.0,-37.80054321718485,144.96382138817344,-37.80104451734347,144.96369627073219
23190,Elgin Street between Cardigan Street and Swanston Street,Carlton,Road Footway,0.85,67.51,79.4,1384181.0,20815.0,44.1,43.25,South,2.0,598.0,24897.0,-37.797066230122645,144.9656258510504,-37.79699365696703,144.96473914806748
27728,Barry Street between Pelham Street and Grattan Street,Carlton,Road Footway,5.59,184.24,33.0,1388990.0,20480.0,37.32,31.73,East,2.0,421.0,30370.0,-37.80080753054724,144.95992619353763,-37.80192842479831,144.95968996951714
30180,Pitt Street between Canning Street and Rathdowne Street,Carlton,Road Footway,3.43,150.43,43.9,1384219.0,20651.0,30.28,26.85,North,2.0,989.0,30585.0,-37.7957828806537,144.97304964066706,-37.79560783735136,144.9712567882859
15694,Peel Street between Dudley Street and Victoria Street,"Melbourne, CBD",Road Footway,2.09,170.63,81.6,1386646.0,22659.0,28.55,26.46,East,1.0,973.0,18322.0,-37.80828950780123,144.95571683017613,-37.80603672883832,144.95615443810792
23177,Cemetery Road East between College Crescent and Lygon Street,Carlton,Road Footway,4.41,134.33,30.5,1388911.0,20773.0,44.08,39.67,South,1.0,497.0,26952.0,-37.79265042791831,144.96814874779432,-37.793461694156726,144.96682946004591
22921,,"Melbourne, CBD",Road Footway,6.01,101.58,16.9,1387244.0,0.0,28.35,22.34,,0.0,0.0,23261.0,-37.806813488714575,144.96310786293708,-37.806925301218534,144.964130109778
26689,Lincoln Square South between Swanston Street and Bouverie Street,Carlton,Road Footway,2.82,44.92,15.9,1389906.0,20838.0,30.31,27.49,South,2.0,795.0,28681.0,-37.80321013855874,144.96216098887786,-37.80323955565913,144.96271385935756
14561,,"Melbourne, CBD",Road Footway,0.59,54.67,92.6,1389334.0,0.0,28.54,27.95,,0.0,0.0,15419.0,-37.80969023481357,144.95564438170828,-37.81028211670841,144.9559180506105
28395,,Carlton,Road Footway,5.41,66.85,12.4,1466271.0,0.0,33.31,27.9,,0.0,0.0,29716.0,-37.80258885233121,144.96292185692968,-37.80294235504385,144.96221086134776
24261,Queensberry Street between Leicester Street and Berkeley Street,Carlton,Road Footway,0.87,23.25,26.7,1389938.0,20471.0,24.16,23.29,North,2.0,1008.0,25997.0,-37.80402126486732,144.95955371655052,-37.80410877193891,144.9600716246843
26650,Grattan Street between Bouverie Street and Leicester Street,Parkville,Road Footway,1.84,82.35,44.8,1388191.0,20848.0,36.35,34.51,North,2.0,674.0,28902.0,-37.800109130499116,144.96235906486558,-37.80001345518967,144.96121930994232
29156,Pelham Street between Cardigan Street and Swanston Street,Carlton,Road Footway,1.61,92.9,57.7,1384522.0,20806.0,37.32,35.71,South,2.0,975.0,29732.0,-37.80274716326911,144.96490240749918,-37.802654768813106,144.9637691109728
29746,,Carlton,Road Footway,3.45,202.79,58.8,1384369.0,0.0,44.31,40.86,,0.0,0.0,30061.0,-37.801567199334,144.9681193912369,-37.801018854951984,144.96821259577186
27683,,Carlton,Road Footway,4.41,94.1,21.3,1389865.0,0.0,45.1,40.69,,0.0,0.0,27685.0,-37.796992043653496,144.96727018597406,-37.796262742295475,144.96672554363047
25316,Barry Street between Leicester Street and Pelham Street,Carlton,Road Footway,5.61,155.59,27.7,1389912.0,20476.0,29.13,23.52,West,2.0,421.0,25997.0,-37.8027304778728,144.9594452997352,-37.804082660294036,144.96011413119572
17941,Victoria Street between Capel Street and Howard Street,North Melbourne,Road Footway,4.04,95.62,23.7,1387929.0,20951.0,34.76,30.72,North,2.0,1152.0,19078.0,-37.80551037377363,144.95388038088115,-37.805638242768936,144.9550139333259
30277,Palmerston Street between Nicholson Street and Station Street,Carlton,Road Footway,0.6,47.5,79.2,1384330.0,22602.0,26.46,25.86,South,2.0,955.0,30894.0,-37.796825224989185,144.97421326496863,-37.79686575676634,144.97489053666922
23345,MacArthur Street between Cathedral Place and St Andrews Place,East Melbourne,Road Footway,1.14,31.98,28.1,1389963.0,21854.0,33.67,32.53,East,2.0,846.0,30432.0,-37.81090813931279,144.97537408876258,-37.81168936978058,144.97490611665805
21886,Royal Parade between Grattan Street and Story Street,Parkville,Road Footway,4.99,258.86,51.9,1390604.0,22514.0,36.71,31.72,East,1.0,1041.0,22858.0,-37.79728640673582,144.95816650588674,-37.798075450576036,144.95806905234662
28666,Leicester Street between Pelham Street and Grattan Street,Carlton,Road Footway,5.62,182.57,32.5,1384615.0,20460.0,37.32,31.7,West,2.0,786.0,30370.0,-37.802019415011465,144.9605216316652,-37.80089929961303,144.96075724801105
28912,,Carlton,Road Footway,3.17,40.48,12.8,1465443.0,0.0,32.89,29.72,,0.0,0.0,29716.0,-37.80238318431342,144.96230902033938,-37.80240562594406,144.96292389412878
25593,Lytton Street between Lygon Street and Cardigan Street,Carlton,Road Footway,2.44,76.92,31.5,1384232.0,20771.0,44.72,42.28,South,2.0,841.0,26951.0,-37.79383329263061,144.96795128239896,-37.79373455740933,144.9668059483767
16000,La Trobe Street between Swanston Street and Elizabeth Street,"Melbourne, CBD",Road Footway,8.35,194.21,23.3,1387066.0,20022.0,22.1,13.75,South,2.0,780.0,18001.0,-37.81037074630851,144.9615628919734,-37.80977141389658,144.96372120121455
24616,Lansdowne Place from Queensberry Street,Carlton,Road Footway,0.0,0.0,0.0,1388973.0,20867.0,0.0,0.0,,3.0,777.0,24942.0,-37.804965505104605,144.9612408791556,-37.804496113094366,144.9613257002631
29196,,Carlton,Road Footway,1.22,95.71,78.4,1466083.0,0.0,36.9,35.68,,0.0,0.0,30384.0,-37.80145049358953,144.97374544128402,-37.8013512397269,144.9724231616242
30979,,Carlton,Road Footway,0.91,43.62,47.9,1384444.0,0.0,41.23,40.32,,0.0,0.0,30979.0,-37.799525902995796,144.9690683405456,-37.799585554644295,144.96961375776482
26964,Elgin Street between Lygon Street and Cardigan Street,Carlton,Road Footway,1.23,62.08,50.5,1388930.0,20816.0,41.88,40.65,North,2.0,598.0,27685.0,-37.79695293215418,144.96665411954854,-37.797005988383724,144.9674027444041
29518,Grattan Place between Argyle Place North and Grattan Street,Carlton,Road Footway,0.67,55.66,83.1,1384678.0,20755.0,38.94,38.27,,3.0,673.0,29709.0,-37.80124857562321,144.9657753602154,-37.80184760494247,144.96565993849296
26286,Lygon Street between Palmerston Street and Lytton Street,Carlton,Road Footway,1.43,51.63,36.1,1384309.0,20538.0,45.49,44.06,West,2.0,840.0,26959.0,-37.795843539009795,144.96760775208466,-37.79532495416725,144.96771726743697
23566,Bedford Place between Flemington Road and Bedford Street,North Melbourne,Road Footway,1.38,43.56,31.6,1386339.0,21121.0,31.32,29.94,,3.0,427.0,23567.0,-37.801114830800586,144.9563764539521,-37.80182820093981,144.95628633945043
29554,,Carlton,Road Footway,0.37,18.85,50.9,1388993.0,0.0,37.12,36.75,,0.0,0.0,30722.0,-37.803265678999,144.9651654383844,-37.802815463503755,144.9652428032877
27705,Church Street between Swanston Street and Bouverie Street,Carlton,Road Footway,2.75,39.85,14.5,1389939.0,20840.0,36.49,33.74,,3.0,512.0,29889.0,-37.801083776237505,144.9636897439201,-37.801024910883676,144.96315128847044
29483,Palmerston Street between Canning Street and Rathdowne Street,Carlton,Road Footway,0.78,38.62,49.5,1384192.0,20780.0,29.06,28.28,North,2.0,955.0,30329.0,-37.796353299585846,144.97239564679043,-37.796548601650045,144.97292130317769
20255,,"Melbourne, CBD",Road Footway,0.63,56.25,89.3,1517459.0,0.0,24.78,24.15,,0.0,0.0,24992.0,-37.8102972402174,144.9647488946082,-37.80958552326937,144.96437232397238
23351,Parliament Place between St Andrews Place and Gisborne Street,East Melbourne,Road Footway,4.81,90.23,18.8,1384949.0,21852.0,37.93,33.12,,2.0,963.0,30432.0,-37.811752732379276,144.97528756446346,-37.81085011670477,144.97548136446338
30852,MacArthur Place North between Canning Street and Rathdowne Street,Carlton,Road Footway,1.18,45.61,38.6,1384289.0,20670.0,30.68,29.5,North,2.0,843.0,30919.0,-37.7981702256951,144.9720805238476,-37.79821216728189,144.97263233573895
26425,,East Melbourne,Road Footway,4.22,126.27,29.9,1384905.0,0.0,43.11,38.89,,0.0,0.0,27466.0,-37.80921298633072,144.97824902034554,-37.80909964809672,144.97719953358106
23854,,Carlton,Road Footway,0.69,107.89,156.3,1388936.0,0.0,48.71,48.02,,0.0,0.0,26952.0,-37.793908403558866,144.96526737371514,-37.79506876493575,144.9662202956149
22601,Victoria Street between Lygon Street and Cardigan Street,Carlton,Road Footway,2.0,35.52,17.8,1387172.0,21605.0,34.5,32.5,North,1.0,1152.0,23928.0,-37.80678294313192,144.9651888282094,-37.80682661203263,144.96571212851734
19514,,"Melbourne, CBD",Road Footway,3.99,103.86,26.0,1389321.0,0.0,19.69,15.7,,0.0,0.0,19514.0,-37.809377519253204,144.96166997087388,-37.80903942191768,144.96282200731537
17835,College Crescent between Royal Parade and Cemetery Road West,Parkville,Road Footway,2.58,139.1,53.9,1384221.0,22599.0,44.48,41.9,North,2.0,524.0,28842.0,-37.79245123537631,144.95879093712603,-37.79193039054772,144.96056700879092
23545,Grattan Street between Flemington Road and Elizabeth Street,Parkville,Road Footway,3.01,139.15,46.2,1388319.0,21552.0,30.54,27.53,South,2.0,674.0,25297.0,-37.79981571476877,144.95719978772675,-37.79959313695944,144.95544519216728
28056,Swanston Street between Lincoln Square North and Grattan Street,Carlton,Road Footway,0.57,46.54,81.6,1384774.0,20488.0,36.91,36.34,West,2.0,1114.0,29889.0,-37.801087393360994,144.96372169116347,-37.80162419533178,144.96360003355792
21652,,"Melbourne, CBD",Road Footway,0.53,77.16,145.6,1386324.0,0.0,18.7,18.17,,0.0,0.0,21652.0,-37.807817957404204,144.96215166517445,-37.80866629540997,144.96254736416262
23371,Lansdowne Street between Cathedral Place and Albert Street,East Melbourne,Road Footway,2.39,81.11,33.9,1384928.0,21850.0,37.31,34.92,East,1.0,778.0,32175.0,-37.81088627931744,144.97828018246608,-37.80998984271186,144.97847299195476
23347,MacArthur Street between Cathedral Place and St Andrews Place,East Melbourne,Road Footway,4.38,90.65,20.7,1467211.0,21854.0,37.52,33.14,East,2.0,846.0,30432.0,-37.81089149180126,144.97540642091317,-37.81171048884296,144.97491433736425
30151,Nicholson Street between Kay Street and Princes Street,Carlton,Road Footway,0.25,40.58,162.3,1384158.0,20884.0,25.09,24.84,,1.0,931.0,30683.0,-37.79527353846488,144.97516007762619,-37.7946386429258,144.97530292703445
30076,,Carlton,Road Footway,2.6,63.61,24.5,1384418.0,0.0,43.09,40.49,,0.0,0.0,30519.0,-37.80070839880567,144.97036729383458,-37.80078835779182,144.97115543523955
19137,,"Melbourne, CBD",Road Footway,3.21,173.79,54.1,1388668.0,0.0,24.93,21.72,,0.0,0.0,24992.0,-37.81032831216372,144.96496107202069,-37.809859643779966,144.96656432533013
18740,Little La Trobe Street between Swanston Street and Elizabeth Street,"Melbourne, CBD",Road Footway,4.58,105.88,23.1,1390114.0,21644.0,19.72,15.14,,3.0,822.0,20605.0,-37.80959857233572,144.96176466137427,-37.809276963100366,144.96293911104308
21987,,"Melbourne, CBD",Road Footway,0.23,19.24,83.6,1387597.0,0.0,26.16,25.93,,0.0,0.0,22598.0,-37.808323603312175,144.96866190975703,-37.80845516855406,144.9682153026676
30181,,Carlton,Road Footway,3.43,150.43,43.9,1384219.0,0.0,30.28,26.85,,0.0,0.0,30585.0,-37.79558729692793,144.97125914459298,-37.79578287748798,144.97304964120582
30620,Faraday Street between Rathdowne Street and Drummond Street,Carlton,Road Footway,2.16,66.37,30.7,1384208.0,20710.0,38.07,35.91,North,2.0,621.0,30727.0,-37.79878336245571,144.9693087600657,-37.7988295189365,144.9700897413604
24995,Rathdowne Street between Victoria Street and Queensberry Street,Carlton,Road Footway,7.19,186.65,26.0,1384416.0,20554.0,37.71,30.52,East,2.0,1024.0,29578.0,-37.80717060012099,144.9689766446566,-37.80537045503932,144.969328712756
29752,,Carlton,Road Footway,0.61,40.26,66.0,1388956.0,0.0,43.31,42.7,,0.0,0.0,29753.0,-37.80210906615756,144.96837526309676,-37.80159301941488,144.96846181650838
26668,Barry Street between Pelham Street and Grattan Street,Carlton,Road Footway,5.17,192.25,37.2,1384769.0,20480.0,36.91,31.74,West,2.0,421.0,27726.0,-37.80189791238158,144.95939162893126,-37.80010091354927,144.95974569131144
26335,Leicester Street between Queensberry Street and Pelham Street,Carlton,Road Footway,3.04,88.52,29.1,1384683.0,20458.0,27.53,24.49,West,2.0,786.0,27738.0,-37.803678910563825,144.96022770662975,-37.80284519984287,144.960413783064
27729,,Carlton,Road Footway,5.59,184.24,33.0,1388990.0,0.0,37.32,31.73,,0.0,0.0,30370.0,-37.800122199864134,144.9599590975294,-37.80080753054724,144.95992619353763
24968,Cardigan Street between Victoria Street and Queensberry Street,Carlton,Road Footway,1.23,54.74,44.5,1384573.0,20504.0,32.52,31.29,East,2.0,483.0,25341.0,-37.80593388223643,144.96467265789028,-37.805432827578386,144.96478662885718
28952,,Carlton,Road Footway,0.94,107.86,114.7,1466078.0,0.0,44.9,43.96,,0.0,0.0,30384.0,-37.80119701058755,144.97028003116384,-37.80279397693741,144.9700577124679
27812,Nicholson Street between Victoria Street and Carlton Street,Carlton,Road Footway,7.81,205.39,26.3,1388940.0,22501.0,41.91,34.1,,1.0,931.0,30384.0,-37.801287360649866,144.97416879501708,-37.80316103194687,144.97382771381854
28348,,Carlton,Road Footway,2.61,134.86,51.7,1384698.0,0.0,44.29,41.68,,0.0,0.0,28878.0,-37.80051773311449,144.96615353381978,-37.79947193007579,144.96633141787902
32354,Swanston Street between Little Lonsdale Street and La Trobe Street,"Melbourne, CBD",Road Footway,1.04,54.64,52.5,1495358.0,20161.0,21.97,20.93,East,2.0,1114.0,32355.0,-37.80983180689918,144.9639737405061,-37.81041993651072,144.96428080716288
20607,Swanston Street between A'Beckett Street and Franklin Street,"Melbourne, CBD",Road Footway,0.67,92.26,137.7,1516525.0,21619.0,22.19,21.52,East,2.0,1114.0,22599.0,-37.80840268346019,144.96345200268425,-37.80756845045389,144.9629908893817
32425,Victoria Parade,East Melbourne,Road Footway,2.41,73.99,30.7,1467043.0,30722.0,41.52,39.11,,6.0,1151.0,32425.0,-37.80804625831849,144.97332472847867,-37.80815738740994,144.97431486625698
29307,Grattan Place between Argyle Place North and Grattan Street,Carlton,Road Footway,0.98,77.52,79.1,1384766.0,20755.0,39.29,38.31,,3.0,673.0,30362.0,-37.80076756947106,144.9658921359167,-37.801854781542936,144.96572416972282
16908,Franklin Street between Elizabeth Street and Queen Street,"Melbourne, CBD",Road Footway,3.02,58.88,19.5,1387657.0,21634.0,23.95,20.93,South,2.0,644.0,18332.0,-37.80894449202307,144.95811677926758,-37.80877174988724,144.95883580672492
25783,,East Melbourne,Road Footway,6.76,99.52,14.7,1467123.0,0.0,30.73,23.97,,0.0,0.0,32175.0,-37.811276424675825,144.97999347607112,-37.81067880545461,144.97911217835605
21913,Grattan Street between Flemington Road and Elizabeth Street,Parkville,Road Footway,2.82,160.33,56.9,1390524.0,21552.0,30.32,27.5,North,2.0,674.0,23205.0,-37.799315460607936,144.95509836229363,-37.7995995278156,144.9572228013617
21960,Queensberry Street between Cobden Street and Peel Street,North Melbourne,Road Footway,2.37,49.35,20.8,1389989.0,20925.0,30.33,27.96,North,2.0,1008.0,23579.0,-37.803798223881934,144.9572613470935,-37.80368756897215,144.95659516739116
27754,Lincoln Place from Swanston Street,Carlton,Road Footway,1.2,36.51,30.4,1388967.0,20833.0,31.72,30.52,,3.0,793.0,27755.0,-37.803857315768326,144.96262817287982,-37.80391140094303,144.96320197747264
18608,Royal Parade between Bayles Street and Degraves Street,Parkville,Road Footway,0.22,32.02,145.5,1388641.0,22605.0,41.08,40.86,East,1.0,1041.0,22858.0,-37.79445261656775,144.95851326302622,-37.79389143887893,144.95861881007446
25737,,East Melbourne,Road Footway,3.0,134.84,44.9,1384841.0,0.0,42.32,39.32,,0.0,0.0,26080.0,-37.80938094629458,144.9754476467704,-37.80921459316576,144.97388530345486
28555,,Carlton,Road Footway,0.57,46.54,81.6,1384774.0,0.0,36.91,36.34,,0.0,0.0,29889.0,-37.80162419100615,144.96359999368426,-37.80109701611714,144.96368754608753
19865,Princess Street between Peel Street and Cobden Street,North Melbourne,Road Footway,0.64,29.86,46.7,1385683.0,20935.0,27.55,26.91,,2.0,1000.0,20948.0,-37.805083899698865,144.95667242583278,-37.80511917285285,144.9571537978954
25960,Elgin Street between Lygon Street and Cardigan Street,Carlton,Road Footway,1.8,66.89,37.2,1384130.0,20816.0,42.66,40.86,South,2.0,598.0,26972.0,-37.79721928016167,144.96706075899118,-37.79715206316706,144.96621565016451
28125,Drummond Street between Queensberry Street and Pelham Street,Carlton,Road Footway,1.01,107.8,106.7,1384258.0,20544.0,41.12,40.11,East,2.0,583.0,29563.0,-37.80418088506155,144.9679867927591,-37.803130295809396,144.9682000283261
24318,Victoria Street between La Trobe Street and Rathdowne Street,Carlton,Road Footway,3.41,159.28,46.7,1385809.0,21599.0,33.9,30.49,North,1.0,1152.0,29578.0,-37.80738350021479,144.97090420923772,-37.80720657648412,144.9690117725471
24193,Keppel Street between Cardigan Street and Swanston Street,Carlton,Road Footway,0.69,107.89,156.3,1388936.0,20502.0,48.71,48.02,East,2.0,755.0,26952.0,-37.795160765526575,144.96621514066757,-37.793908469446414,144.96526736297585
28095,Swanston Street between Lincoln Square South and Pelham Street,Carlton,Road Footway,1.19,42.94,36.1,1384620.0,20485.0,35.31,34.12,West,2.0,1114.0,29716.0,-37.80306740964172,144.96335107137475,-37.80262227559811,144.96346338063185
25083,,East Melbourne,Road Footway,5.41,91.31,16.9,1467118.0,0.0,34.91,29.5,,0.0,0.0,32175.0,-37.8103456962775,144.97992517817673,-37.81016038088993,144.97875540792333
28909,,Carlton,Road Footway,2.05,73.76,36.0,1384689.0,0.0,31.33,29.28,,0.0,0.0,29337.0,-37.802059119121594,144.96085806454354,-37.802181822843245,144.96199725806773
22539,,Parkville,Road Footway,4.36,229.28,52.6,1388156.0,0.0,35.51,31.15,,0.0,0.0,23205.0,-37.79833589799768,144.95737659815126,-37.79721039302361,144.95751433913878
23572,Peel Street between Queensberry Street and Elizabeth Street,North Melbourne,Road Footway,2.02,65.52,32.4,1386196.0,21117.0,32.93,30.91,West,1.0,973.0,24603.0,-37.801256742168654,144.95655577629014,-37.801892932080115,144.95644901034726
14560,Franklin Street between Queen Street and William Street,"Melbourne, CBD",Road Footway,4.82,192.77,40.0,1388278.0,21527.0,28.56,23.74,,2.0,644.0,15419.0,-37.80966141863645,144.95563135852666,-37.809536034042814,144.95744354717849
29179,,Carlton,Road Footway,1.96,80.53,41.1,1466047.0,0.0,42.31,40.35,,0.0,0.0,29578.0,-37.80640854892376,144.97216289587465,-37.805983448204046,144.97294720411742
25954,Cardigan Street between Keppel Street and Lytton Street,Carlton,Road Footway,3.99,153.75,38.5,1384231.0,20519.0,48.88,44.89,East,2.0,483.0,26951.0,-37.79373455420206,144.96680591931218,-37.79514872595133,144.96652257163512
20620,La Trobe Street between Exhibition Street and Russell Street,"Melbourne, CBD",Road Footway,3.21,115.3,35.9,1387623.0,20018.0,29.95,26.74,North,2.0,780.0,22309.0,-37.80869559608225,144.96639891568898,-37.80833489689912,144.9677440501217
30358,University Street between Drummond Street and Lygon Street,Carlton,Road Footway,1.03,50.79,49.3,1384363.0,20770.0,43.94,42.91,,3.0,1145.0,30721.0,-37.799425949153225,144.96760566723043,-37.79948489755703,144.96826521438243
28924,Ievers Terrace from Cardigan Street,Carlton,Road Footway,0.0,0.0,0.0,1388998.0,20804.0,0.0,0.0,,3.0,734.0,29552.0,-37.80345645649014,144.9647790740605,-37.80339486535326,144.9642130300353
23686,,East Melbourne,Road Footway,4.38,90.65,20.7,1467211.0,0.0,37.52,33.14,,0.0,0.0,30432.0,-37.81089776128885,144.97543278808456,-37.81171208695379,144.97493037520516
28455,Carlton Street between Nicholson Street and Canning Street,Carlton,Road Footway,2.2,145.34,66.1,1384420.0,20683.0,35.49,33.29,North,2.0,486.0,28970.0,-37.80110759137555,144.97416818780016,-37.800949388670176,144.9725017406596
21997,Exhibition Street between Lonsdale Street and Little Lonsdale Street,"Melbourne, CBD",Road Footway,0.81,65.4,80.7,1387713.0,20144.0,23.73,22.92,East,2.0,615.0,23305.0,-37.80913260024551,144.96936581382454,-37.80993500540708,144.96976706228887
26981,Cardigan Street between Grattan Street and Faraday Street,Carlton,Road Footway,4.43,201.83,45.6,1384702.0,20514.0,44.52,40.09,East,2.0,483.0,28878.0,-37.798663019614104,144.96595169929887,-37.800460725878686,144.965607896817
28634,Cardigan Street between Argyle Place North and Grattan Street,Carlton,Road Footway,1.41,80.1,56.8,1384580.0,20512.0,39.11,37.7,West,2.0,483.0,29888.0,-37.80178187673128,144.96507185973522,-37.80090492814029,144.96525856051662
27811,Nicholson Street between Victoria Street and Carlton Street,Carlton,Road Footway,0.63,45.67,72.5,1384475.0,22501.0,43.52,42.89,,1.0,931.0,29578.0,-37.80430459313335,144.97363283611037,-37.80381856351129,144.97375171806527
28591,Rathdowne Street between Neill Street and Princes Street,Carlton,Road Footway,0.64,134.9,210.7,1384412.0,20639.0,30.5,29.86,East,2.0,1024.0,30846.0,-37.79439062122225,144.97117485920788,-37.7927303750813,144.9714944394481
19888,,"Melbourne, CBD",Road Footway,1.55,94.83,61.2,1385805.0,0.0,18.52,16.97,,0.0,0.0,21651.0,-37.80715375030853,144.9600857969163,-37.80800018848933,144.96047378287338
17948,Capel Street between William Street and Victoria Street,"West Melbourne, Residential",Road Footway,1.21,89.14,73.7,1386487.0,21392.0,29.72,28.51,East,2.0,482.0,17949.0,-37.8059422521445,144.9553105733086,-37.807003267472936,144.95509202644664
30959,Kay Street between Station Street and Canning Street,Carlton,Road Footway,0.34,39.58,116.4,1384209.0,20619.0,26.27,25.93,South,2.0,750.0,30988.0,-37.79537021631632,144.97346822062298,-37.79541743337315,144.97420817638326
28096,,Carlton,Road Footway,1.19,42.94,36.1,1384620.0,0.0,35.31,34.12,,0.0,0.0,29716.0,-37.803067405868894,144.9633510365434,-37.802618401890676,144.96342696621332
22561,Capel Street between Courtney Street and Bedford Street,North Melbourne,Road Footway,0.74,42.99,58.1,1385680.0,21118.0,34.51,33.77,East,2.0,482.0,23893.0,-37.80324121200755,144.95578558628762,-37.80269742756918,144.95587722973733
22835,Cemetery Road East between College Crescent and Lygon Street,Carlton,Road Footway,2.99,111.98,37.4,1384068.0,20773.0,47.87,44.88,South,1.0,497.0,26952.0,-37.793278191085896,144.9668591350168,-37.79345227923269,144.96534606843227
30404,,Carlton,Road Footway,3.43,166.3,48.5,1384240.0,0.0,30.47,27.04,,0.0,0.0,30650.0,-37.79843316927651,144.97380899383145,-37.79896451873014,144.97286901897968
23187,Palmerston Place between Cardigan Street and Swanston Street,Carlton,Road Footway,0.44,24.31,55.2,1384124.0,20823.0,46.32,45.88,,3.0,954.0,23530.0,-37.79575168145188,144.96572656339453,-37.79567165883852,144.96497048165608
21682,Exhibition Street between Little Bourke Street and Lonsdale Street,"Melbourne, CBD",Road Footway,1.41,95.0,67.4,1387717.0,20143.0,24.36,22.95,East,2.0,615.0,27824.0,-37.81020897459718,144.96984941314795,-37.810992069300006,144.97025065096668
27041,Cardigan Street between Queensberry Street and Argyle Place South,Carlton,Road Footway,1.49,89.15,59.8,1384529.0,20506.0,36.05,34.56,East,2.0,483.0,28112.0,-37.80461032491578,144.96485041883088,-37.80373531573295,144.96508151090978
28664,,Carlton,Road Footway,0.37,13.46,36.4,1466275.0,0.0,34.52,34.15,,0.0,0.0,30370.0,-37.80104742482524,144.95988709475844,-37.801514965817965,144.96015846381928
19534,,"Melbourne, CBD",Road Footway,2.98,178.09,59.8,1387265.0,0.0,19.36,16.38,,0.0,0.0,19911.0,-37.81081430041301,144.96679796791574,-37.81100402196779,144.96615418593646
28853,Rathdowne Street between Pitt Street and Kay Street,Carlton,Road Footway,0.7,40.92,58.5,1388908.0,20569.0,31.14,30.44,East,2.0,1024.0,29843.0,-37.795556622942705,144.9709710958241,-37.79511120579455,144.97108889648987
21978,Russell Street between MacKenzie Street and Victoria Street,"Melbourne, CBD",Road Footway,0.75,52.31,69.7,1387173.0,21615.0,34.33,33.58,East,2.0,1045.0,23608.0,-37.80768356320957,144.96590342231372,-37.80713602844231,144.96600394093218
32635,Faraday Street between Nicholson Street and Canning Street,Carlton,Road Footway,0.75,38.37,51.2,1389840.0,20616.0,29.88,29.13,North,2.0,621.0,32635.0,-37.79923667303941,144.9734825315366,-37.799278193372686,144.97410588684087
26698,Queensberry Place from Queensberry Street,Carlton,Road Footway,0.2,10.06,50.3,1384705.0,20798.0,32.74,32.54,,3.0,1006.0,27037.0,-37.80482119293625,144.96425786883125,-37.805342254929606,144.96415983200419
21655,Franklin Street between Victoria Street and Swanston Street,"Melbourne, CBD",Road Footway,3.97,62.8,15.8,1385745.0,21622.0,25.92,21.95,South,2.0,644.0,22599.0,-37.807502465414856,144.9630956128765,-37.80730197507197,144.96389994422492
18744,La Trobe Street between Russell Street and Swanston Street,"Melbourne, CBD",Road Footway,3.23,92.27,28.6,1389578.0,20020.0,30.14,26.91,North,2.0,780.0,22599.0,-37.809092746904454,144.96505104028788,-37.808817739069575,144.96608724739357
25014,,East Melbourne,Road Footway,0.42,19.71,46.9,1466912.0,0.0,34.34,33.92,,0.0,0.0,25710.0,-37.8082940222859,144.97187294681888,-37.80868325487656,144.97223413286113
18978,Cemetery Road West between Royal Parade and College Crescent,Carlton,Road Footway,2.05,286.33,139.7,1466004.0,22375.0,45.68,43.63,North,1.0,498.0,24542.0,-37.79004392794141,144.95945970235084,-37.79152190246024,144.96096809450182
25699,,Carlton,Road Footway,4.02,88.63,22.0,1466046.0,0.0,36.13,32.11,,0.0,0.0,29578.0,-37.80709382431447,144.96982388145858,-37.807058181501475,144.97089804866854
24890,Cardigan Street between Elgin Street and Keppel Street,Carlton,Road Footway,1.79,58.39,32.6,1384307.0,20518.0,44.47,42.68,East,2.0,483.0,25610.0,-37.796875758153966,144.9661773069428,-37.796355061082295,144.96635479066302
23872,Elizabeth Street between Flemington Road and Grattan Street,Parkville,Road Footway,0.57,89.93,157.7,1389648.0,21551.0,31.12,30.55,West,1.0,599.0,25297.0,-37.80066959672224,144.95717281116063,-37.7998157147737,144.95719978801054
19783,Gatehouse Street between Morrah Street and Bayles Street,Parkville,Road Footway,5.13,139.97,27.3,1388014.0,22342.0,34.67,29.54,East,2.0,649.0,20509.0,-37.794581968629714,144.95382520278204,-37.79364654613079,144.95506941964084
29962,Nicholson Street between Elgin Street and Palmerston Street,Carlton,Road Footway,0.63,83.87,133.1,1384332.0,20880.0,26.47,25.84,,1.0,931.0,30894.0,-37.79779994113413,144.97473582667382,-37.79690814265477,144.9749265284564
19074,Capel Street between Victoria Street and Queensberry Street,North Melbourne,Road Footway,1.42,107.16,75.5,1385031.0,20945.0,32.34,30.92,West,2.0,482.0,19078.0,-37.80457170840622,144.95524589283238,-37.805638230336186,144.95501393519476
28843,Princes Street between Station Street and Canning Street,Carlton,Road Footway,1.14,84.93,74.5,1389850.0,20628.0,26.61,25.47,,1.0,999.0,29833.0,-37.79306453374867,144.97485297557358,-37.7929819736672,144.97379189881875
24274,Queensberry Street between Bouverie Street and Leicester Street,Carlton,Road Footway,0.65,54.22,83.4,1384684.0,20868.0,23.56,22.91,South,2.0,1008.0,24942.0,-37.80439760755583,144.96044461508697,-37.804468918208144,144.96128488008458
30684,Station Street between Kay Street and Princes Street,Carlton,Road Footway,0.18,8.71,48.3,1384123.0,20877.0,25.64,25.46,East,2.0,1092.0,30685.0,-37.79430322543745,144.974633795005,-37.794916731446826,144.97450484192822
30627,Little Barkly Street between Faraday Street and Rathdowne Street,Carlton,Road Footway,3.19,67.13,21.0,1384472.0,20675.0,37.3,34.11,,3.0,807.0,31141.0,-37.79929002061519,144.971733261949,-37.79968560564858,144.97102182382955
27018,Bouverie Street between Lincoln Square South and Pelham Street,Carlton,Road Footway,0.81,34.24,42.3,1384544.0,22503.0,28.53,27.72,West,2.0,456.0,27743.0,-37.802904097624,144.961869160468,-37.802453684346816,144.9619885851779
25988,Grattan Street between Barry Street and Berkeley Street,Carlton,Road Footway,2.19,61.71,28.2,1389937.0,20850.0,36.91,34.72,South,2.0,674.0,27726.0,-37.800008819244646,144.95891829380042,-37.80006475574023,144.95971327232104
28433,,Carlton,Road Footway,2.2,141.57,64.3,1466043.0,0.0,43.51,41.31,,0.0,0.0,29578.0,-37.80564145790793,144.97340432205456,-37.805513014602674,144.97170571270715
28954,,Carlton,Road Footway,1.65,178.71,108.3,1466023.0,0.0,40.76,39.11,,0.0,0.0,29578.0,-37.80726849851222,144.9728298306292,-37.80568437050928,144.97151661286958
23235,,North Melbourne,Road Footway,3.39,79.35,23.4,1386411.0,0.0,32.93,29.54,,0.0,0.0,23579.0,-37.80271675807426,144.9567688781609,-37.80329730259553,144.95703733618328
27723,Grattan Street between Leicester Street and Barry Street,Carlton,Road Footway,0.6,41.79,69.6,1389914.0,20849.0,37.71,37.11,South,2.0,674.0,30370.0,-37.80019300192095,144.96084381313972,-37.8001309404161,144.96004891539283
21359,La Trobe Street between Exhibition Street and Russell Street,"Melbourne, CBD",Road Footway,0.66,60.51,91.7,1387709.0,20018.0,26.76,26.1,North,2.0,780.0,22319.0,-37.808096225386635,144.9685601974589,-37.80829663430222,144.96777394654114
30337,Elgin Street between Canning Street and Rathdowne Street,Carlton,Road Footway,1.65,61.25,37.1,1390621.0,20654.0,30.49,28.84,North,2.0,598.0,30706.0,-37.79751957127319,144.97185381171437,-37.797588627366146,144.9727379523523
27330,Faraday Street between Lygon Street and Cardigan Street,Carlton,Road Footway,0.2,21.89,109.4,1384701.0,20813.0,44.5,44.3,South,2.0,621.0,28878.0,-37.79866302519946,144.96595174911272,-37.798694552220006,144.96648636374883
17635,Little Lonsdale Street between Swanston Street and Elizabeth Street,"Melbourne, CBD",Road Footway,1.81,42.1,23.3,1390583.0,20040.0,15.92,14.11,South,2.0,825.0,18008.0,-37.81103213198203,144.96287284993588,-37.81085754605776,144.96348885107568
21330,,"Melbourne, CBD",Road Footway,2.62,52.6,20.1,1386326.0,0.0,20.74,18.12,,0.0,0.0,21652.0,-37.807817953189115,144.9621516624507,-37.807647550255325,144.96273835293832
24299,Earl Street between Lygon Street and Cardigan Street,Carlton,Road Footway,1.21,27.74,22.9,1384570.0,20740.0,35.12,33.91,,3.0,592.0,25348.0,-37.80598776364588,144.96527021818423,-37.806051326370785,144.9658432505941
18729,Queen Street between Franklin Street and Therry Street,"Melbourne, CBD",Road Footway,0.83,74.52,89.8,1386317.0,21630.0,24.17,23.34,East,2.0,1010.0,19487.0,-37.80850374466725,144.9580137254649,-37.807673625536744,144.95821001606942
30276,Barkly Street between Nicholson Street and Canning Street,Carlton,Road Footway,3.43,166.3,48.5,1384240.0,20596.0,30.47,27.04,North,2.0,415.0,30650.0,-37.798054461371926,144.97455023509355,-37.798964535890576,144.9728690413019
25735,Gisborne Street between Albert Street and Victoria Parade,East Melbourne,Road Footway,1.42,92.53,65.2,1384757.0,20895.0,43.94,42.52,West,2.0,657.0,26080.0,-37.80938094629458,144.9754476467704,-37.808490775758365,144.97565399368324
23196,Grattan Street between Berkeley Street and Royal Parade,Parkville,Road Footway,2.02,64.74,32.0,1384504.0,20851.0,34.12,32.1,North,2.0,674.0,26661.0,-37.799712616776134,144.9587337956498,-37.79965264624821,144.95790422615127
29711,Cardigan Street between Pelham Street and Argyle Place North,Carlton,Road Footway,0.24,14.4,60.0,1384629.0,20509.0,37.55,37.31,East,2.0,483.0,30722.0,-37.802091676366786,144.96536717647518,-37.80253722924465,144.96525159805762
26325,,Carlton,Road Footway,2.19,61.71,28.2,1389937.0,0.0,36.91,34.72,,0.0,0.0,27726.0,-37.80003948599928,144.95919250067197,-37.80009706626083,144.9597076589555
27684,Keppel Street between Lygon Street and Palmerston Street,Carlton,Road Footway,4.41,94.1,21.3,1389865.0,20501.0,45.1,40.69,West,2.0,755.0,27685.0,-37.79626274119272,144.96672554603418,-37.7970059606393,144.96740274935104
16910,A'Beckett Street between Elizabeth Street and Queen Street,"Melbourne, CBD",Road Footway,7.02,121.81,17.4,1390158.0,21649.0,22.97,15.95,South,2.0,368.0,16910.0,-37.80998259081685,144.9585917564456,-37.8095006575447,144.96032692717324
26395,,East Melbourne,Road Footway,1.41,45.04,31.9,1384736.0,0.0,42.13,40.72,,0.0,0.0,26395.0,-37.80830946348749,144.97399934312028,-37.80837959236187,144.97463219902104
21695,Little Bourke Street between Spring Street and Exhibition Street,"Melbourne, CBD",Road Footway,1.8,45.62,25.3,1388676.0,20049.0,26.52,24.72,South,2.0,809.0,22346.0,-37.81108023666978,144.97029194040948,-37.810925292202334,144.97086394275956
22334,Little Lonsdale Street between Spring Street and Exhibition Street,"Melbourne, CBD",Road Footway,3.18,74.75,23.5,1387025.0,20034.0,27.5,24.32,North,2.0,825.0,27428.0,-37.809032090614025,144.96935043243718,-37.808763420744135,144.97034654325046
22273,Elizabeth Street between Queensberry Street and Pelham Street,North Melbourne,Road Footway,6.82,206.2,30.2,1389988.0,21115.0,33.38,26.56,West,1.0,599.0,23580.0,-37.80191216401732,144.95713060557975,-37.80386201859946,144.95809086600582
16778,Intersection of Royal Parade and Gatehouse Street,Parkville,Road Footway,0.78,55.65,71.3,1388188.0,22372.0,42.26,41.48,,1.0,1041.0,28842.0,-37.79190579032978,144.95885610658075,-37.79246523415507,144.958702961143
14563,,"Melbourne, CBD",Road Footway,1.84,57.04,31.0,1387659.0,0.0,25.54,23.7,,0.0,0.0,32346.0,-37.81023280987387,144.95781698955508,-37.810414698134736,144.95719623865008
29700,Dorrit Street between Grattan Street and Faraday Street,Carlton,Road Footway,0.98,92.57,94.4,1384500.0,20758.0,44.08,43.1,,3.0,575.0,29876.0,-37.79898934259849,144.96652725785557,-37.800278110289995,144.96630723326314
22212,,North Melbourne,Road Footway,0.83,39.59,47.7,1385074.0,0.0,27.36,26.53,,0.0,0.0,23580.0,-37.80379350023573,144.9575084939946,-37.803854257882904,144.95801898140766
23249,Leicester Street between Berkeley Street and Queensberry Street,Carlton,Road Footway,1.2,68.15,56.8,1384685.0,20455.0,22.73,21.53,East,2.0,786.0,24942.0,-37.80501676309918,144.9602952267283,-37.80439761607214,144.96044459118468
25738,,East Melbourne,Road Footway,5.41,141.41,26.1,1466981.0,0.0,39.94,34.53,,0.0,0.0,26082.0,-37.81045531530041,144.97300249480284,-37.80954367739935,144.9743579039069
30249,,Carlton,Road Footway,0.65,64.76,99.6,1466074.0,0.0,41.72,41.07,,0.0,0.0,30384.0,-37.80246779720597,144.97200190220875,-37.80306461307368,144.97323155600782
24568,,Carlton,Road Footway,1.03,71.55,69.5,1532929.0,0.0,44.34,43.31,,0.0,0.0,24897.0,-37.798362273961146,144.9656626612223,-37.798239381683075,144.96452530220768
19891,Franklin Street between Swanston Street and Elizabeth Street,"Melbourne, CBD",Road Footway,0.58,64.91,111.9,1386315.0,21633.0,17.35,16.77,South,2.0,644.0,20247.0,-37.80822623033619,144.9606070506369,-37.808016328472924,144.96145724008414
19136,Russell Street between Little Lonsdale Street and La Trobe Street,"Melbourne, CBD",Road Footway,4.17,88.04,21.1,1387624.0,20153.0,29.54,25.37,West,2.0,1045.0,24992.0,-37.809047735043,144.96619517552202,-37.80985206213962,144.96658989413342
25671,,Carlton,Road Footway,1.6,40.43,25.3,1384670.0,0.0,31.91,30.31,,0.0,0.0,26351.0,-37.80474977206516,144.9636438008592,-37.80480978244736,144.96418891244838
23660,Harwood Place from Little Bourke Street,"Melbourne, CBD",Road Footway,0.0,0.0,0.0,1388366.0,20229.0,0.0,0.0,,3.0,694.0,23993.0,-37.81073114127314,144.97156496301753,-37.811227143598906,144.97179581723498
24260,,Carlton,Road Footway,2.95,71.64,24.3,1384770.0,0.0,27.52,24.57,,0.0,0.0,25997.0,-37.803563375471136,144.95934297837468,-37.80402126486732,144.95955371655052
21376,Corrs Lane between Little Bourke Street and Lonsdale Street,"Melbourne, CBD",Road Footway,0.03,10.34,343.4,1387339.0,20270.0,18.12,18.09,,3.0,538.0,21376.0,-37.811535508885314,144.96846733984603,-37.81096323773357,144.9682055957787
21332,Franklin Street between Swanston Street and Elizabeth Street,"Melbourne, CBD",Road Footway,0.56,34.63,61.8,1386638.0,21633.0,18.14,17.58,South,2.0,644.0,22294.0,-37.80784490597667,144.96205616738013,-37.8079684245901,144.96150405428153
16777,,Parkville,Road Footway,1.21,185.27,153.1,1389659.0,0.0,42.48,41.27,,0.0,0.0,16777.0,-37.79070889279378,144.95831515140597,-37.79183100463303,144.95817664918278
30183,Canning Street between Pitt Street and Kay Street,Carlton,Road Footway,0.79,49.61,62.8,1384218.0,20587.0,27.06,26.27,West,2.0,479.0,30585.0,-37.79578288490792,144.97304967961554,-37.79533522446143,144.97316778583203
28098,Kelvin Place between Cardigan Street and Swanston Street,Carlton,Road Footway,1.22,62.96,51.6,1384772.0,20803.0,35.54,34.32,,3.0,751.0,28926.0,-37.803751511047146,144.96379799004498,-37.803849924410976,144.96471151684798
19892,Literature Lane between Little La Trobe Street and Little La Trobe Street,"Melbourne, CBD",Road Footway,3.41,75.51,22.1,1385801.0,21645.0,19.35,15.94,,3.0,120083.0,19895.0,-37.80897293631662,144.96286318539146,-37.8092390376837,144.96193405403156
25429,,East Melbourne,Road Footway,3.4,107.48,31.6,1384711.0,0.0,41.88,38.48,,0.0,0.0,25429.0,-37.80968065981278,144.97817021764382,-37.80955048568792,144.97696549972682
27296,Rathdowne Street between Neill Street and Princes Street,Carlton,Road Footway,1.22,114.35,93.7,1477322.0,20639.0,31.07,29.85,West,2.0,1024.0,28597.0,-37.79342461272185,144.97105131604602,-37.79453793199592,144.97084166988103
28133,,Carlton,Road Footway,2.79,77.01,27.6,1466032.0,0.0,40.51,37.72,,0.0,0.0,29578.0,-37.8070269723601,144.9712934896297,-37.806492176443065,144.97193882489583
17250,A'Beckett Street between Elizabeth Street and Queen Street,"Melbourne, CBD",Road Footway,2.54,57.56,22.7,1386319.0,21649.0,21.51,18.97,North,2.0,368.0,18332.0,-37.80982714827224,144.95851962833544,-37.80964072040725,144.9592369289169
24396,,East Melbourne,Road Footway,3.81,156.08,41.0,1384903.0,0.0,37.33,33.52,,0.0,0.0,24396.0,-37.81092118899669,144.97611827015584,-37.81110488342585,144.97779513187322
24356,,"Melbourne, CBD",Road Footway,1.43,34.14,23.9,1387186.0,0.0,29.36,27.93,,0.0,0.0,24356.0,-37.8107412745256,144.97115180153884,-37.81056395764581,144.97175765137172
26691,,Carlton,Road Footway,2.61,55.07,21.1,1388968.0,0.0,32.92,30.31,,0.0,0.0,28926.0,-37.80448072512485,144.96365054585885,-37.80453118348746,144.96413905111916
21573,Fitzgibbon Street between Morrah Street and Bayles Street,Parkville,Road Footway,1.98,70.0,35.4,1388094.0,22356.0,38.47,36.49,West,2.0,629.0,21574.0,-37.79450471286352,144.95684310198234,-37.79518650111717,144.95673197885915
28910,Bouverie Street between Pelham Street and Lincoln Square North,Carlton,Road Footway,0.87,45.52,52.3,1384617.0,22504.0,30.14,29.27,East,2.0,456.0,29716.0,-37.802214792801244,144.962298851855,-37.801769518084534,144.96241476869113
21579,Wimble Street between Morrah Street and Park Drive,Parkville,Road Footway,0.83,70.52,85.0,1388740.0,22348.0,35.29,34.46,East,2.0,1183.0,21579.0,-37.7944428202354,144.95602412154975,-37.79512214651436,144.95591398458274
19527,La Trobe Street between Russell Street and Swanston Street,"Melbourne, CBD",Road Footway,6.2,175.37,28.3,1388667.0,20020.0,29.55,23.35,South,2.0,780.0,24992.0,-37.809047734357634,144.96619517497282,-37.80959648298038,144.9642118008399
25447,,East Melbourne,Road Footway,2.63,93.18,35.4,1467122.0,0.0,31.92,29.29,,0.0,0.0,32175.0,-37.81086669735426,144.97861522495572,-37.810414073016204,144.9799141354224
29704,Lygon Street between Argyle Place North and Grattan Street,Carlton,Road Footway,2.79,105.77,37.9,1384450.0,20530.0,42.88,40.09,East,2.0,840.0,30231.0,-37.800890984382974,144.96707644285866,-37.80197776632526,144.96682726933943
17976,,"Melbourne, CBD",Road Footway,1.32,60.98,46.2,1390211.0,0.0,20.9,19.58,,0.0,0.0,18332.0,-37.80896997191436,144.9589190299081,-37.80941978482063,144.95912794180026
19845,,North Melbourne,Road Footway,1.44,94.82,65.8,1385878.0,0.0,35.75,34.31,,0.0,0.0,20939.0,-37.803430126018355,144.95424804765722,-37.80355551715532,144.95538810939362
29906,Pelham Street between Drummond Street and Lygon Street,Carlton,Road Footway,0.6,53.0,88.3,1384453.0,21557.0,39.71,39.11,South,2.0,975.0,30058.0,-37.80296885549736,144.96672062615352,-37.803036132252224,144.96753410200597
27464,Victoria Parade,East Melbourne,Road Footway,4.97,130.73,26.3,1467024.0,30722.0,44.71,39.74,,6.0,1151.0,28481.0,-37.80843186461022,144.97684270731762,-37.80851739301242,144.97844439137722
15131,La Trobe Street between Elizabeth Street and Queen Street,"Melbourne, CBD",Road Footway,2.06,39.92,19.4,1387426.0,20024.0,19.37,17.31,South,2.0,780.0,15999.0,-37.811008757592,144.9593990658449,-37.810864843593954,144.9599882865837
19128,,"Melbourne, CBD",Road Footway,3.2,92.96,29.0,1387548.0,0.0,26.55,23.35,,0.0,0.0,22599.0,-37.809092746904454,144.96505104028788,-37.80929927058418,144.9643514726657
19108,,"Melbourne, CBD",Road Footway,2.21,76.02,34.4,1389290.0,0.0,18.15,15.94,,0.0,0.0,19108.0,-37.80952312272448,144.9595809855209,-37.809292829001954,144.96037291171862
23601,Victoria Street between Cardigan Street and Swanston Street,Carlton,Road Footway,4.39,93.72,21.3,1387245.0,21607.0,28.13,23.74,North,1.0,1152.0,26021.0,-37.806561030335594,144.9630814573419,-37.806662017368886,144.9642262141946
19862,,North Melbourne,Road Footway,1.22,53.03,43.5,1385080.0,0.0,29.59,28.37,,0.0,0.0,19863.0,-37.804871856784,144.95639455764498,-37.80415651045776,144.95652497981467
23535,Swanston Street between Faraday Street and Elgin Street,Carlton,Road Footway,0.82,126.48,154.2,1384182.0,20492.0,44.11,43.29,East,2.0,1114.0,24897.0,-37.79699367020485,144.96473911070768,-37.798235188717186,144.96448650665866
19787,Park Drive between Morrah Street and Bayles Street,Parkville,Road Footway,2.59,97.8,37.8,1390564.0,22346.0,33.9,31.31,West,2.0,956.0,20513.0,-37.79523406530265,144.95469680696274,-37.79441803733349,144.9554692624476
25968,Cardigan Street between Grattan Street and Faraday Street,Carlton,Road Footway,4.83,190.07,39.4,1384589.0,20514.0,44.52,39.69,West,2.0,483.0,26984.0,-37.79863475889035,144.96565359307144,-37.800431712921146,144.96530769069432
13239,,"West Melbourne, Residential",Road Footway,0.87,75.68,87.0,1467881.0,0.0,30.18,29.31,,0.0,0.0,15114.0,-37.808641501876906,144.95484735779684,-37.80941669162,144.95516018817776
25261,,Carlton,Road Footway,0.76,105.64,139.0,1389849.0,0.0,48.03,47.27,,0.0,0.0,25607.0,-37.795535367863934,144.96615793897172,-37.79467044704149,144.96547128024363
15875,Intersection of Royal Parade and Gatehouse Street,Parkville,Road Footway,0.97,281.41,290.1,1390551.0,22372.0,41.86,40.89,,1.0,1041.0,16793.0,-37.79199448183644,144.9581564711631,-37.792452678572346,144.9580999685164
26407,,East Melbourne,Road Footway,0.78,45.0,57.7,1389028.0,0.0,42.52,41.74,,0.0,0.0,26415.0,-37.80943663701525,144.97590037559561,-37.809484533969496,144.97636645630845
28939,Drummond Place between Drummond Street and Finlay Place,Carlton,Road Footway,0.03,18.43,612.2,1384264.0,20729.0,40.52,40.49,,3.0,582.0,29356.0,-37.80374521218365,144.9671684601429,-37.803798210153715,144.96774099517827
25385,Nicholson Street between Albert Street and Victoria Street,East Melbourne,Road Footway,0.4,40.29,100.7,1387956.0,21554.0,38.92,38.52,East,2.0,931.0,26395.0,-37.8082337850601,144.97331644442338,-37.8086886216295,144.97320147603486
28948,Drummond Street between Pelham Street and Grattan Street,Carlton,Road Footway,1.02,64.57,63.3,1384459.0,20546.0,42.32,41.3,East,2.0,583.0,29566.0,-37.80285821239779,144.96818191879552,-37.80214757561709,144.9683698773208
30074,,Carlton,Road Footway,10.4,218.93,21.1,1384466.0,0.0,43.09,32.69,,0.0,0.0,30633.0,-37.800492126144405,144.9701616674662,-37.799835592035286,144.97132577082826
24872,Lytton Street between Lygon Street and Cardigan Street,Carlton,Road Footway,2.65,84.97,32.1,1384172.0,20771.0,43.72,41.07,North,2.0,841.0,26952.0,-37.79349495537636,144.96684670525534,-37.79359057752794,144.96798897496225
24253,Intersection of Elizabeth Street and Flemington Road,Carlton,Road Footway,1.23,76.82,62.5,1386586.0,20594.0,33.35,32.12,,1.0,0.0,25992.0,-37.80177117671772,144.9577887885142,-37.80081613176614,144.95769747588474
23870,Elizabeth Street between Flemington Road and Grattan Street,Carlton,Road Footway,0.97,81.97,84.5,1388437.0,21551.0,32.15,31.18,East,1.0,599.0,25992.0,-37.79988533379608,144.95781172604896,-37.800833883989625,144.95776107067206
23996,Nicholson Street between Spring Street and Albert Street,East Melbourne,Road Footway,3.55,155.27,43.7,1467331.0,21553.0,37.67,34.12,East,2.0,931.0,26082.0,-37.809397967399505,144.97307805196237,-37.81082134447308,144.9730540729225
28641,Bouverie Street between Lincoln Square North and Grattan Street,Carlton,Road Footway,1.37,48.93,35.7,1384776.0,20468.0,32.11,30.74,East,2.0,456.0,29889.0,-37.800960281124944,144.96255593375875,-37.801496578353294,144.9624242243358
28057,,Carlton,Road Footway,2.75,39.85,14.5,1389939.0,0.0,36.49,33.74,,0.0,0.0,29889.0,-37.80109307832447,144.9636881997615,-37.801038714015434,144.96320675257712
29847,,Carlton,Road Footway,1.03,50.01,48.5,1388931.0,0.0,30.1,29.07,,0.0,0.0,29848.0,-37.79586268835896,144.97209410076744,-37.795791203225605,144.97143284006532
26305,,Carlton,Road Footway,1.82,79.29,43.6,1384588.0,0.0,39.93,38.11,,0.0,0.0,26984.0,-37.80043167032351,144.96530766630542,-37.800307711617215,144.96416980976218
25972,Grattan Street between Swanston Street and Bouverie Street,Parkville,Road Footway,3.02,80.37,26.6,1390587.0,20847.0,37.52,34.5,North,2.0,674.0,28902.0,-37.80026961541326,144.96382702566427,-37.800174749559744,144.96269360906123
29340,,Carlton,Road Footway,2.76,58.83,21.3,1465441.0,0.0,33.28,30.52,,0.0,0.0,29716.0,-37.801769518084534,144.96241476869113,-37.80225124756057,144.96297898972549
29487,Rathdowne Street between Elgin Street and Palmerston Street,Carlton,Road Footway,0.82,91.54,111.6,1384344.0,20565.0,32.67,31.85,East,2.0,1024.0,30335.0,-37.796462080336426,144.9708731375846,-37.79735639050684,144.97066027123634
30021,Little Palmerston Street between Rathdowne Street and Drummond Street,Carlton,Road Footway,0.79,24.26,30.7,1384205.0,20697.0,33.91,33.12,,3.0,828.0,30021.0,-37.796601576412634,144.96958803273682,-37.796657579203924,144.9702037675991
26722,Victoria Parade,East Melbourne,Road Footway,0.78,21.81,28.0,1467333.0,30721.0,38.91,38.13,,9.0,1151.0,26723.0,-37.80784528341324,144.97300455287768,-37.80782267897428,144.97255120748463
21646,,"Melbourne, CBD",Road Footway,0.48,52.98,110.4,1387493.0,0.0,19.99,19.51,,0.0,0.0,32446.0,-37.80652382206706,144.960528536265,-37.80659662395624,144.9611947540778
30050,,Carlton,Road Footway,0.41,14.38,35.1,1466284.0,0.0,37.92,37.51,,0.0,0.0,30722.0,-37.8030068307855,144.96570548239697,-37.80270119551782,144.96526243890443
11508,William Street between La Trobe Street and A'Beckett Street,"West Melbourne, Residential",Road Footway,1.16,77.08,66.4,1389541.0,21519.0,28.91,27.75,West,2.0,1179.0,15114.0,-37.810818940897576,144.95580531987142,-37.811664407347614,144.9562334697273
32654,Rathdowne Street between Faraday Street and Elgin Street,Carlton,Road Footway,1.34,49.51,36.9,1384164.0,20563.0,35.43,34.09,West,2.0,1024.0,32654.0,-37.79858176287933,144.97013217388778,-37.797981001117975,144.97028260738728
24990,Drummond Street between Victoria Street and Queensberry Street,Carlton,Road Footway,4.4,114.62,26.0,1384391.0,20542.0,37.54,33.14,East,2.0,583.0,24990.0,-37.807014891347976,144.9674939575203,-37.80593357833597,144.96772061925563
28034,Lygon Street between Faraday Street and Elgin Street,Carlton,Road Footway,3.22,137.29,42.6,1389880.0,20534.0,43.31,40.09,West,2.0,840.0,28620.0,-37.79728232425737,144.96739453708219,-37.79852211552135,144.9671339126896
30374,Faraday Street between Rathdowne Street and Drummond Street,Carlton,Road Footway,2.82,95.18,33.8,1388958.0,20710.0,39.51,36.69,South,2.0,621.0,30619.0,-37.798998079073314,144.9689039642582,-37.79905914028116,144.97004938477087
23534,,Carlton,Road Footway,0.85,67.51,79.4,1384181.0,0.0,44.1,43.25,,0.0,0.0,24897.0,-37.79708955716671,144.9656218636359,-37.79702519228511,144.96502930180716
30321,Kay Street between Canning Street and Rathdowne Street,Carlton,Road Footway,1.19,49.83,41.9,1384288.0,20573.0,27.46,26.27,North,2.0,750.0,30453.0,-37.79506156666811,144.97317169671342,-37.79503117150863,144.9725756079423
26426,Victoria Parade between Morrison Place and Lansdowne Street,East Melbourne,Road Footway,4.84,129.98,26.9,1384753.0,21566.0,44.54,39.7,,1.0,1151.0,27466.0,-37.8086192005417,144.9768492046855,-37.80873853721715,144.97832872061477
26015,Queensberry Street between Cardigan Street and Swanston Street,Carlton,Road Footway,2.61,55.07,21.1,1388968.0,22500.0,32.92,30.31,North,2.0,1008.0,28926.0,-37.80448462428443,144.96344743550938,-37.804531728338496,144.9641446290097
25698,,Carlton,Road Footway,3.98,108.69,27.3,1466029.0,0.0,36.72,32.74,,0.0,0.0,29578.0,-37.80657585933282,144.9693345537153,-37.8055913086831,144.9696508777316
24372,Gisborne Street between Cathedral Place and Albert Street,East Melbourne,Road Footway,1.57,54.55,34.7,1384756.0,21849.0,42.3,40.73,West,2.0,657.0,25744.0,-37.81048544497649,144.9752642120129,-37.809662078784335,144.975465195288
24665,,East Melbourne,Road Footway,3.62,61.6,17.0,1466935.0,0.0,37.72,34.1,,0.0,0.0,25374.0,-37.80896971911198,144.97212160071228,-37.808906794700405,144.9728465605267
26378,,Carlton,Road Footway,3.77,83.0,22.0,1466020.0,0.0,36.09,32.32,,0.0,0.0,29578.0,-37.80696237160113,144.9697141320306,-37.80670885846213,144.97076169040517
29838,,Carlton,Road Footway,0.85,106.45,125.2,1388926.0,0.0,27.1,26.25,,0.0,0.0,30453.0,-37.79372086975355,144.97340426704844,-37.794809383213504,144.9732149391886
24399,,East Melbourne,Road Footway,3.8,101.46,26.7,1389961.0,0.0,38.12,34.32,,0.0,0.0,25746.0,-37.81085401343329,144.97798156967232,-37.809954304852816,144.97812571303066
18229,,Parkville,Road Footway,1.0,44.69,44.7,1465405.0,0.0,38.09,37.09,,0.0,0.0,18997.0,-37.792598905512406,144.9568770295404,-37.79271726162808,144.95633662656343
21990,Exploration Lane between La Trobe Street and Little Lonsdale Street,"Melbourne, CBD",Road Footway,0.0,0.0,0.0,1390474.0,20279.0,23.39,23.39,,3.0,616.0,23294.0,-37.809329190112656,144.96835909703887,-37.808522338359396,144.9679844282246
18736,Literature Lane between Little La Trobe Street and Little La Trobe Street,"Melbourne, CBD",Road Footway,3.99,103.86,26.0,1389321.0,21645.0,19.69,15.7,,3.0,120083.0,19514.0,-37.80937540900865,144.96166206914057,-37.80919326707311,144.96289878210197
28669,,Carlton,Road Footway,2.22,45.02,20.3,1466278.0,0.0,33.54,31.32,,0.0,0.0,30370.0,-37.802019415011465,144.9605216316652,-37.80152484476442,144.9602502526272
19094,Victoria Street between Elizabeth Street and O'Connell Street,"Melbourne, CBD",Road Footway,1.58,53.28,33.7,1387498.0,22670.0,21.92,20.34,South,1.0,1152.0,19879.0,-37.806375035400094,144.95920445775602,-37.80629552993295,144.95848326792003
28454,,Carlton,Road Footway,2.2,145.34,66.1,1384420.0,0.0,35.49,33.29,,0.0,0.0,28970.0,-37.800931558081814,144.97250471375685,-37.80110754885715,144.97416819409284
27010,,Carlton,Road Footway,1.85,92.7,50.1,1384547.0,0.0,30.55,28.7,,0.0,0.0,27743.0,-37.80232375492522,144.96081186099275,-37.80244946960063,144.96195008368827
25399,Albert Street between Nicholson Street and Gisborne Street,East Melbourne,Road Footway,3.0,134.84,44.9,1384841.0,20889.0,42.32,39.32,North,2.0,375.0,26080.0,-37.8092316281811,144.97387159721615,-37.80938094629458,144.9754476467704
23954,Victoria Street between La Trobe Street and Rathdowne Street,"Melbourne, CBD",Road Footway,1.08,46.72,43.3,1386316.0,21599.0,31.95,30.87,South,1.0,1152.0,24325.0,-37.80751796211072,144.96962298203147,-37.807559351543844,144.97029973016944
24680,Albert Street between Nicholson Street and Gisborne Street,East Melbourne,Road Footway,0.64,16.52,25.8,1384914.0,20889.0,38.36,37.72,South,2.0,375.0,26082.0,-37.80943253804335,144.97361327185004,-37.80940285660225,144.9731190736847
25346,Orr Street between Victoria Street and Earl Street,Carlton,Road Footway,0.81,46.95,58.0,1384642.0,20739.0,33.54,32.73,,3.0,948.0,25346.0,-37.80608607040371,144.9653291414459,-37.80656493670843,144.9652303958425
29460,Station Street between Kay Street and Princes Street,Carlton,Road Footway,0.22,28.44,129.2,1384229.0,20877.0,25.46,25.24,East,2.0,1092.0,29833.0,-37.79309473827633,144.974847789792,-37.79365455971149,144.97472033567902
32663,MacArthur Place North between Canning Street and Rathdowne Street,Carlton,Road Footway,2.19,92.91,42.4,1384177.0,20670.0,32.9,30.71,North,2.0,843.0,32663.0,-37.79804445674321,144.97092819099888,-37.79814516568025,144.97205336180534
29939,,Carlton,Road Footway,4.01,87.59,21.8,1466070.0,0.0,42.51,38.5,,0.0,0.0,30384.0,-37.801390007709635,144.97213683696702,-37.80195207098859,144.97136914854886
28418,Little Cardigan Street between Queensberry Street and Cardigan Street,Carlton,Road Footway,0.0,0.0,0.0,1389007.0,20747.0,0.0,0.0,,3.0,810.0,28419.0,-37.80465570928728,144.96526955239582,-37.80376329801617,144.96542342671728
23197,,Parkville,Road Footway,2.02,64.74,32.0,1384504.0,0.0,34.12,32.1,,0.0,0.0,26661.0,-37.79962215621101,144.95790731463023,-37.79969603839845,144.9585823253901
22219,Morrah Street between Fitzgibbon Street and Wimble Street,Parkville,Road Footway,0.78,45.41,58.2,1390561.0,22325.0,35.3,34.52,North,2.0,912.0,22531.0,-37.795445108393295,144.955899016798,-37.79552240243051,144.95669040903334
24601,Oxford Street between Blackwood Street and Wreckyn Street,North Melbourne,Road Footway,3.2,66.84,20.9,1386190.0,21127.0,27.53,24.33,,3.0,951.0,25306.0,-37.800447172885214,144.9542755088849,-37.80108845692847,144.95509629457496
28607,Elgin Street between Drummond Street and Lygon Street,Carlton,Road Footway,3.61,98.93,27.4,1384075.0,20689.0,39.71,36.1,North,2.0,598.0,29092.0,-37.797169505716184,144.96888143906497,-37.79707511308058,144.9677376782366
29576,Carlton Street between Canning Street and Rathdowne Street,Carlton,Road Footway,6.83,170.58,25.0,1384352.0,20682.0,43.72,36.89,South,2.0,486.0,30384.0,-37.800860275706576,144.97010151499092,-37.801050928390005,144.97213966468354
29839,Canning Street between Kay Street and Neill Street,Carlton,Road Footway,0.85,106.45,125.2,1388926.0,20589.0,27.1,26.25,West,2.0,479.0,30453.0,-37.79370132336796,144.97344871762752,-37.79506152522455,144.97317171733116
20967,,"Melbourne, CBD",Road Footway,0.6,71.15,118.6,1389509.0,0.0,19.33,18.73,,0.0,0.0,32446.0,-37.806926848680746,144.96020024756638,-37.806628474974865,144.96120525848622
27289,Princes Street between Rathdowne Street and Drummond Street,Carlton,Road Footway,1.84,54.95,29.9,1384270.0,20643.0,32.71,30.87,,1.0,999.0,28018.0,-37.792664552455285,144.97116288286617,-37.792601727741,144.97030083561125
15715,,"Melbourne, CBD",Road Footway,3.63,85.0,23.4,1386759.0,0.0,18.6,14.97,,0.0,0.0,15999.0,-37.8111781142606,144.95962900707522,-37.81086910457349,144.96067092390228
19856,Capel Street between Victoria Street and Queensberry Street,North Melbourne,Road Footway,2.59,142.39,55.0,1385087.0,20945.0,33.13,30.54,East,2.0,482.0,20942.0,-37.80386373498932,144.95568239372744,-37.80517227985123,144.9554122250747
28592,,Carlton,Road Footway,0.64,134.9,210.7,1384412.0,0.0,30.5,29.86,,0.0,0.0,30846.0,-37.793624702984815,144.97133921914318,-37.794338803704726,144.971217881572
24385,,East Melbourne,Road Footway,4.81,90.23,18.8,1384949.0,0.0,37.93,33.12,,0.0,0.0,30432.0,-37.81086864135182,144.9754391417566,-37.81175000052738,144.97529950545916
25766,Victoria Parade between Eades Street and Lansdowne Street,East Melbourne,Road Footway,1.77,147.85,83.5,1384752.0,21595.0,39.47,37.7,,1.0,1151.0,26105.0,-37.80881808405599,144.9786652504839,-37.809027315677426,144.98094645341456
24660,,East Melbourne,Road Footway,0.99,12.39,12.5,1467370.0,0.0,34.53,33.54,,0.0,0.0,31016.0,-37.80806303878335,144.9717294352867,-37.80860075558407,144.97195343860318
32439,Elizabeth Street between Therry Street and Victoria Street,"Melbourne, CBD",Road Footway,0.82,42.72,52.1,1386334.0,21628.0,20.36,19.54,West,2.0,599.0,32439.0,-37.80641681707257,144.9594915424376,-37.806982845869605,144.9597833646437
29348,,Carlton,Road Footway,1.58,47.08,29.8,1466281.0,0.0,38.5,36.92,,0.0,0.0,30722.0,-37.80326581695575,144.96516541467784,-37.803087225094345,144.96571217406049
23635,Punch Lane from Little Bourke Street,"Melbourne, CBD",Road Footway,0.36,59.12,164.2,1387187.0,20226.0,28.26,27.9,,3.0,1003.0,24356.0,-37.810141162305754,144.97086179178854,-37.8107412745256,144.97115180153884
27665,Palmerston Street between Rathdowne Street and Drummond Street,Carlton,Road Footway,3.21,94.55,29.5,1384273.0,20684.0,35.49,32.28,North,2.0,955.0,28597.0,-37.796155887263744,144.97056424489568,-37.79606116572821,144.96941668057087
30529,Faraday Street between Nicholson Street and Canning Street,Carlton,Road Footway,1.25,81.68,65.3,1388953.0,20616.0,31.1,29.85,South,2.0,621.0,30529.0,-37.79943711645455,144.9730451665675,-37.799525061700095,144.97411003440644
27702,Grattan Street between Cardigan Street and Swanston Street,Carlton,Road Footway,0.77,36.85,47.9,1389000.0,22506.0,39.69,38.92,South,2.0,674.0,28353.0,-37.8006391003342,144.9647195881517,-37.80064473942494,144.9652701031512
24400,,East Melbourne,Road Footway,4.2,187.58,44.7,1384845.0,0.0,38.53,34.33,,0.0,0.0,25746.0,-37.81085401343329,144.97798156967232,-37.81061663385879,144.97580315369933
29180,,Carlton,Road Footway,2.87,117.41,40.9,1466044.0,0.0,42.32,39.45,,0.0,0.0,29578.0,-37.80599711090473,144.97298719763725,-37.80706696894824,144.97293583874207
23304,,"Melbourne, CBD",Road Footway,9.4,183.44,19.5,1389422.0,0.0,32.93,23.53,,0.0,0.0,23305.0,-37.809538358034885,144.97112903724292,-37.809310886124294,144.97191008050604
15982,Peel Street between Dudley Street and Victoria Street,"West Melbourne, Residential",Road Footway,1.01,59.91,59.3,1387162.0,22659.0,28.76,27.75,West,1.0,973.0,15982.0,-37.80824723537485,144.95533522008216,-37.80771525854155,144.95547442143297
19473,Cobden Street between Victoria Street and Princess Street,North Melbourne,Road Footway,0.25,50.08,200.2,1389132.0,20931.0,26.17,25.92,East,2.0,520.0,21958.0,-37.80516601733017,144.95737875317357,-37.80566157418775,144.95726629573542
25665,,Carlton,Road Footway,2.26,50.54,22.4,1389922.0,0.0,29.33,27.07,,0.0,0.0,26345.0,-37.804339992147376,144.96242193538617,-37.804395677433206,144.9629300017181
30012,Canning Street between Elgin Street and Palmerston Street,Carlton,Road Footway,0.39,46.8,120.0,1384197.0,20583.0,28.48,28.09,West,2.0,479.0,30332.0,-37.796687847213995,144.9729335740995,-37.79732177256016,144.97279013141934
27023,Cumberland Place between Lincoln Square South and Bouverie Street,Carlton,Road Footway,3.21,45.11,14.1,1389925.0,20836.0,29.52,26.31,,3.0,1227.0,28681.0,-37.803604358780476,144.96209343015963,-37.8036718203153,144.96265992911214
16276,,"Melbourne, CBD",Road Footway,2.4,77.37,32.2,1389579.0,0.0,16.15,13.75,,0.0,0.0,19522.0,-37.81014546563264,144.96146224028192,-37.809900846598225,144.96229914861863
29169,,Carlton,Road Footway,0.4,69.06,172.6,1388923.0,0.0,40.71,40.31,,0.0,0.0,29356.0,-37.803798210153715,144.96774099517827,-37.803315451141366,144.9678232489406
28866,Drummond Street between Elgin Street and Palmerston Street,Carlton,Road Footway,0.6,41.2,68.7,1384076.0,20552.0,36.48,35.88,West,2.0,583.0,29092.0,-37.79716950592224,144.96888144102482,-37.79652898131303,144.9690212802047
19869,,North Melbourne,Road Footway,0.25,50.08,200.2,1389132.0,0.0,26.17,25.92,,0.0,0.0,21958.0,-37.80516599021553,144.95737876158736,-37.8056641202367,144.95728871347117
29678,Rathdowne Street between Elgin Street and Palmerston Street,Carlton,Road Footway,0.79,67.9,85.9,1384216.0,20565.0,33.25,32.46,West,2.0,1024.0,29861.0,-37.79732283677541,144.9703327953849,-37.79668710228256,144.97050592117805
14559,,"Melbourne, CBD",Road Footway,4.82,192.77,40.0,1388278.0,0.0,28.56,23.74,,0.0,0.0,15419.0,-37.80969022067143,144.9556443751695,-37.80950701830951,144.95688453191934
29764,,Carlton,Road Footway,2.37,117.88,49.7,1466093.0,0.0,41.27,38.9,,0.0,0.0,30384.0,-37.803022711159464,144.9733463973315,-37.802052210302975,144.972689820721
30626,Faraday Street between Canning Street and Rathdowne Street,Carlton,Road Footway,4.22,181.28,43.0,1388400.0,20673.0,35.72,31.5,North,2.0,621.0,30874.0,-37.798907910685,144.97043197730832,-37.79910137411386,144.97247421363227
28602,Palmerston Street between Rathdowne Street and Drummond Street,Carlton,Road Footway,3.22,95.86,29.8,1384080.0,20684.0,35.7,32.48,South,2.0,955.0,29287.0,-37.79639533424698,144.97051875131038,-37.79630240878434,144.96937557703242
30055,Lygon Street between Pelham Street and Argyle Place North,Carlton,Road Footway,0.39,49.84,127.8,1384448.0,20528.0,39.67,39.28,East,2.0,840.0,30231.0,-37.8026920103166,144.9667062325285,-37.80225127699328,144.96684331005056
27694,Tyne Street between Lygon Street and Cardigan Street,Carlton,Road Footway,0.81,36.77,45.4,1384165.0,20789.0,43.1,42.29,,3.0,1137.0,28037.0,-37.79791451188184,144.96630975347608,-37.797953889986296,144.96680996755944
28072,Grattan Street between Bouverie Street and Leicester Street,Carlton,Road Footway,1.25,42.3,33.8,1384692.0,20848.0,36.51,35.26,South,2.0,674.0,29337.0,-37.80026302862693,144.96170873877819,-37.800253383428384,144.9611776347202
25719,Evelyn Place between Nicholson Street and Albert Street,East Melbourne,Road Footway,1.59,50.69,31.9,1389030.0,21561.0,40.32,38.73,,3.0,614.0,26395.0,-37.808692670693326,144.97323943946913,-37.808758842024716,144.9739216547095
24620,Queensberry Street between Bouverie Street and Leicester Street,Carlton,Road Footway,0.97,77.5,79.9,1389908.0,20868.0,24.11,23.14,North,2.0,1008.0,26339.0,-37.8041563688106,144.96048891701818,-37.80424888146899,144.96163219434212
29753,Drummond Street between Pelham Street and Grattan Street,Carlton,Road Footway,0.61,40.26,66.0,1388956.0,20546.0,43.31,42.7,East,2.0,583.0,29753.0,-37.802107844995945,144.9683401857748,-37.80159301641525,144.9684617889183
27426,,Carlton,Road Footway,3.04,138.84,45.7,1466022.0,0.0,40.54,37.5,,0.0,0.0,29578.0,-37.80701238306441,144.97119451675258,-37.8057035373123,144.97147338051158
29690,,Carlton,Road Footway,3.0,97.1,32.4,1384214.0,0.0,42.68,39.68,,0.0,0.0,30197.0,-37.79855193227592,144.96748680240972,-37.79861981626296,144.9680344156979
24379,Albert Street between Morrison Place and Lansdowne Street,East Melbourne,Road Footway,3.19,119.19,37.4,1384844.0,20891.0,41.52,38.33,South,2.0,375.0,25746.0,-37.809920852814095,144.9781311543351,-37.809793853807314,144.97664998427337
23520,Lygon Street between Lytton Street and Princes Street,Carlton,Road Footway,1.58,104.22,66.0,1384171.0,20540.0,40.87,39.29,,2.0,840.0,26952.0,-37.792634177959435,144.9681897114547,-37.793590573559854,144.96798900715638
24328,Bennetts Lane from Little Lonsdale Street,"Melbourne, CBD",Road Footway,0.19,12.51,65.8,1389417.0,20280.0,23.73,23.54,,3.0,437.0,24328.0,-37.80924982686107,144.9679133358344,-37.80881310416703,144.9677057917769
25686,,Carlton,Road Footway,1.82,67.34,37.0,1384379.0,0.0,39.53,37.71,,0.0,0.0,26036.0,-37.80590318146208,144.96772579880212,-37.8052095976116,144.96784691522242
20624,Hayward Lane between Little Lonsdale Street and La Trobe Street,"Melbourne, CBD",Road Footway,0.0,0.0,0.0,1387527.0,20282.0,0.0,0.0,,3.0,698.0,21013.0,-37.809102838159326,144.96684119454432,-37.80969683309087,144.96711712351532
13488,William Street between A'Beckett Street and Franklin Street,"West Melbourne, Residential",Road Footway,1.0,61.24,61.2,1389197.0,21529.0,28.96,27.96,West,2.0,1179.0,15114.0,-37.80978263471515,144.95532745720874,-37.81037306994896,144.9556313206794
24256,Berkeley Street between Queensberry Street and Pelham Street,Carlton,Road Footway,3.39,96.06,28.3,1384600.0,20472.0,33.32,29.93,West,2.0,441.0,25313.0,-37.80206131537814,144.95840853022017,-37.80287979020913,144.958811723181
21000,Russell Street between MacKenzie Street and Victoria Street,"Melbourne, CBD",Road Footway,1.2,33.16,27.6,1467347.0,21615.0,34.33,33.13,West,2.0,1045.0,22599.0,-37.80705148889448,144.96527272635922,-37.80775878027925,144.96564391475567
27400,Drummond Street between Queensberry Street and Pelham Street,Carlton,Road Footway,0.59,81.67,138.4,1384374.0,20544.0,40.11,39.52,West,2.0,583.0,27780.0,-37.80411041819767,144.96771998439894,-37.804902496464365,144.9675529188918
17975,Anthony Street between Franklin Street and A'Beckett Street,"Melbourne, CBD",Road Footway,1.63,91.58,56.2,1386328.0,21637.0,20.14,18.51,,3.0,388.0,19108.0,-37.8087479167529,144.95891375391858,-37.80959917212253,144.95932108167455
30703,David Street between Elgin Street and Palmerston Street,Carlton,Road Footway,0.6,72.25,120.4,1384348.0,20655.0,30.26,29.66,,3.0,558.0,30785.0,-37.79730782224292,144.9718916024831,-37.79658981913546,144.9720246745706
20469,Princes Park Drive between Cemetery Road West and MacPherson Street,Carlton,Road Footway,4.44,408.72,92.1,1532800.0,22512.0,48.7,44.26,West,2.0,997.0,24542.0,-37.784985529748475,144.96321474054355,-37.791448905350215,144.9612710608799
30465,Palmerston Street between Canning Street and Rathdowne Street,Carlton,Road Footway,0.76,33.56,44.2,1389871.0,20780.0,29.68,28.92,South,2.0,955.0,30785.0,-37.796588742463776,144.97201487186874,-37.7966165462962,144.97254219830194
25590,,Carlton,Road Footway,3.6,89.06,24.7,1389881.0,0.0,38.07,34.47,,0.0,0.0,28606.0,-37.792501848195,144.96936095140157,-37.792455121928576,144.96887200462197
25042,Albert Street between Nicholson Street and Gisborne Street,East Melbourne,Road Footway,2.4,108.57,45.2,1389050.0,20889.0,42.12,39.72,South,2.0,375.0,25744.0,-37.80962497342542,144.97540899233724,-37.809461175085495,144.97364759089368
24173,Cemetery Road East between College Crescent and Lygon Street,Carlton,Road Footway,1.41,63.23,44.8,1556146.0,20773.0,46.68,45.27,South,1.0,497.0,26952.0,-37.793455631383,144.9665088027924,-37.793377197088354,144.96565729127673
30270,Murchison Street between Barrup Street and Canning Street,Carlton,Road Footway,0.79,44.58,56.4,1384473.0,20611.0,31.68,30.89,North,2.0,921.0,30270.0,-37.79981593214521,144.97298425379822,-37.79986134261269,144.9735665390238
23518,,Carlton,Road Footway,3.13,269.49,86.1,1389852.0,0.0,49.0,45.87,,0.0,0.0,24184.0,-37.79263021136399,144.9642571128293,-37.792270778003186,144.96367359948238
29295,Faraday Street between Drummond Street and Lygon Street,Carlton,Road Footway,3.0,97.1,32.4,1384214.0,22507.0,42.68,39.68,North,2.0,621.0,30197.0,-37.79868050032711,144.96861159466758,-37.798610353667456,144.96747129466502
20638,Lonsdale Street between Exhibition Street and Russell Street,"Melbourne, CBD",Road Footway,2.42,165.29,68.3,1386749.0,20003.0,21.77,19.35,South,2.0,803.0,32331.0,-37.81088379342661,144.9674279646943,-37.810373313438284,144.96926073997113
22294,A'Beckett Street between Swanston Street and Elizabeth Street,"Melbourne, CBD",Road Footway,1.22,35.05,28.7,1386637.0,21643.0,17.94,16.72,North,2.0,368.0,22294.0,-37.808706425387825,144.96246125563644,-37.80889586986908,144.9617598524653
23271,Lygon Street between Victoria Street and Queensberry Street,Carlton,Road Footway,1.61,126.71,78.7,1384355.0,20522.0,36.34,34.73,East,2.0,840.0,23271.0,-37.80685621675403,144.96600972604037,-37.805532311336215,144.96628173117045
29671,,Carlton,Road Footway,0.97,44.36,45.7,1384317.0,0.0,28.87,27.9,,0.0,0.0,29671.0,-37.795934533230536,144.97275931982938,-37.795866714608295,144.9721311230899
12079,William Street between La Trobe Street and A'Beckett Street,"Melbourne, CBD",Road Footway,1.41,99.7,70.7,1387660.0,21519.0,28.77,27.36,East,2.0,1179.0,13518.0,-37.810736334830935,144.95608861866,-37.81159006403949,144.95652180771347
26709,Queensberry Street between Rathdowne Street and Drummond Street,Carlton,Road Footway,2.65,46.09,17.4,1389858.0,22497.0,41.55,38.9,North,2.0,1008.0,29563.0,-37.804968648011176,144.9678861691186,-37.80506064469235,144.96903451484118
16787,Royal Parade between Gatehouse Street and Degraves Street,Parkville,Road Footway,1.04,94.65,91.0,1388737.0,22607.0,40.72,39.68,West,1.0,1041.0,22533.0,-37.793607043345425,144.95798790799333,-37.792690552717744,144.957694697869
21020,Lonsdale Street between Exhibition Street and Russell Street,"Melbourne, CBD",Road Footway,0.62,40.0,64.5,1387208.0,20003.0,22.17,21.55,North,2.0,803.0,21369.0,-37.81006187380108,144.96945832507686,-37.810192865181435,144.96889383246653
19890,,"Melbourne, CBD",Road Footway,0.58,64.91,111.9,1386315.0,0.0,17.35,16.77,,0.0,0.0,20247.0,-37.80825575916808,144.9606203522739,-37.808019572525275,144.96144672207012
23608,,"Melbourne, CBD",Road Footway,1.0,94.18,94.2,1389249.0,0.0,33.72,32.72,,0.0,0.0,23608.0,-37.80732960798001,144.9671237062901,-37.80766243693693,144.9659761498178
17247,Anthony Street between Franklin Street and A'Beckett Street,"Melbourne, CBD",Road Footway,1.32,60.98,46.2,1390211.0,21637.0,20.9,19.58,,3.0,388.0,18332.0,-37.80942021697717,144.95912986159385,-37.808774102050904,144.95882812005223
21367,Exhibition Street between Lonsdale Street and Little Lonsdale Street,"Melbourne, CBD",Road Footway,0.97,94.69,97.6,1389533.0,20144.0,23.29,22.32,West,2.0,615.0,21369.0,-37.81001865219099,144.96948339567342,-37.80921890693105,144.96907063197003
30191,,Carlton,Road Footway,1.47,52.71,35.9,1384134.0,0.0,34.95,33.48,,0.0,0.0,30344.0,-37.79758942837599,144.97020906999055,-37.79750874520088,144.9694934460694
26936,Reeves Street between Rathdowne Street and Drummond Street,Carlton,Road Footway,3.81,78.99,20.7,1477321.0,23273.0,33.5,29.69,South,3.0,120050.0,28597.0,-37.793422360180365,144.97103292710418,-37.79332199680547,144.96988742197274
25317,,Carlton,Road Footway,5.61,155.59,27.7,1389912.0,0.0,29.13,23.52,,0.0,0.0,25997.0,-37.80332923527235,144.959721743335,-37.80273048338576,144.9594452810264
20627,Hayward Lane between Lonsdale Street and Little Lonsdale Street,"Melbourne, CBD",Road Footway,0.81,10.28,12.7,1390421.0,20275.0,23.91,23.1,,3.0,698.0,20629.0,-37.810275176509464,144.96734299050982,-37.809803612531816,144.96712447680966
26062,Victoria Parade between Nicholson Street and Gisborne Street,East Melbourne,Road Footway,1.41,45.04,31.9,1384736.0,21560.0,42.13,40.72,,1.0,1151.0,26395.0,-37.80834281911801,144.9746425609028,-37.80830946348749,144.97399934312028
25717,Victoria Parade between Nicholson Street and Gisborne Street,East Melbourne,Road Footway,1.63,58.41,35.8,1388404.0,21560.0,40.73,39.1,,1.0,1151.0,26395.0,-37.80826823747335,144.9740061628704,-37.80823378517511,144.9733164445622
24585,,Carlton,Road Footway,1.23,76.82,62.5,1386586.0,0.0,33.35,32.12,,0.0,0.0,25992.0,-37.800833883989625,144.95776107067206,-37.80171222010921,144.9577621000513
25322,Leicester Street between Queensberry Street and Pelham Street,Carlton,Road Footway,5.8,168.04,29.0,1384591.0,20458.0,29.11,23.31,East,2.0,786.0,26339.0,-37.804116301893146,144.96045157930882,-37.80255396183794,144.96077064455287
32489,,Carlton,Road Footway,0.29,15.65,53.9,1466098.0,0.0,39.07,38.78,,0.0,0.0,32489.0,-37.802559360568225,144.96564077724568,-37.80231529312342,144.96613700152437
30341,Elgin Street between Canning Street and Rathdowne Street,Carlton,Road Footway,1.63,70.38,43.2,1384142.0,20654.0,30.29,28.66,South,2.0,598.0,30707.0,-37.7978233749313,144.97269905475784,-37.79776813942493,144.97192058128851
20258,Russell Street between Little Lonsdale Street and La Trobe Street,"Melbourne, CBD",Road Footway,3.38,66.11,19.6,1386742.0,20153.0,28.3,24.92,East,2.0,1045.0,21013.0,-37.809158163232375,144.9665687140832,-37.80972428499538,144.96687092655102
17256,Little La Trobe Street between Swanston Street and Elizabeth Street,"Melbourne, CBD",Road Footway,0.56,39.2,70.0,1386323.0,21644.0,15.1,14.54,,3.0,822.0,19522.0,-37.80973704007185,144.9612732098989,-37.809634395521115,144.96171669073343
18737,,"Melbourne, CBD",Road Footway,3.22,60.36,18.7,1389248.0,0.0,19.52,16.3,,0.0,0.0,19514.0,-37.80953505314824,144.9617397482109,-37.809194925746546,144.9628932116453
19088,,North Melbourne,Road Footway,2.43,75.27,31.0,1387663.0,0.0,25.53,23.1,,0.0,0.0,19477.0,-37.805886096215204,144.95725006592548,-37.80599940436429,144.95826008360382
28931,Argyle Place South between Lygon Street and Cardigan Street,Carlton,Road Footway,1.74,76.71,44.1,1384624.0,20751.0,38.32,36.58,North,2.0,398.0,30722.0,-37.80329285092356,144.9651605227568,-37.803388926297735,144.9663030011873
21360,La Trobe Street between Exhibition Street and Russell Street,"Melbourne, CBD",Road Footway,0.23,19.24,83.6,1387597.0,20018.0,26.16,25.93,South,2.0,780.0,22598.0,-37.808323603084524,144.96866190962132,-37.808480113341645,144.96803114740072
19852,Capel Street between Victoria Street and Queensberry Street,North Melbourne,Road Footway,0.98,37.39,38.2,1385086.0,20945.0,34.11,33.13,West,2.0,482.0,20575.0,-37.80382859156983,144.95538066059876,-37.80426473007507,144.95526541128427
26673,Barry Street between Leicester Street and Pelham Street,Carlton,Road Footway,6.6,173.09,26.2,1384682.0,20476.0,31.14,24.54,East,2.0,421.0,27738.0,-37.803678909642564,144.96022769995818,-37.80216047544134,144.9596502412279
22903,Elizabeth Street between Queensberry Street and Pelham Street,Carlton,Road Footway,7.19,235.85,32.8,1385387.0,21115.0,33.32,26.13,East,1.0,599.0,23900.0,-37.801992403970274,144.95779581802495,-37.80393696645712,144.9587851247438
22520,Swanston Street between Elgin Street and College Crescent,Carlton,Road Footway,3.19,169.31,53.1,1384336.0,20494.0,48.69,45.5,East,2.0,1114.0,26952.0,-37.7935687014448,144.96532594350538,-37.795617904959066,144.9649456589365
27782,Drummond Street between Queensberry Street and Pelham Street,Carlton,Road Footway,0.61,54.13,88.7,1384259.0,20544.0,40.31,39.7,East,2.0,583.0,29563.0,-37.804930761636726,144.96781226973258,-37.804216637552045,144.9680143711846
27794,Victoria Parade between Nicholson Street and La Trobe Street,Carlton,Road Footway,3.41,129.33,37.9,1390500.0,21597.0,38.92,35.51,North,1.0,1151.0,29578.0,-37.80743436417196,144.97141939536903,-37.807608920110546,144.97307224674626
30469,Elgin Street between Canning Street and Rathdowne Street,Carlton,Road Footway,1.2,48.29,40.2,1384302.0,20654.0,32.27,31.07,North,2.0,598.0,30470.0,-37.797450386630246,144.971517402357,-37.79741005520522,144.97092367734538
28074,,Carlton,Road Footway,0.6,41.79,69.6,1389914.0,0.0,37.71,37.11,,0.0,0.0,30370.0,-37.800234979287275,144.96100367515024,-37.800175734654815,144.96045646211394
21226,Royal Parade between Grattan Street and Story Street,Parkville,Road Footway,4.99,258.86,51.9,1390604.0,22514.0,36.71,31.72,East,1.0,1041.0,22858.0,-37.79728944005682,144.95819290769924,-37.799610050277316,144.95779919798122
23247,Berkeley Street between Leicester Street and Queensberry Street,Carlton,Road Footway,0.84,27.73,33.0,1389895.0,20456.0,22.96,22.12,East,2.0,441.0,23907.0,-37.80501803589696,144.95998887276482,-37.80448181284326,144.9597404186551
